%time,field.transforms0.header.seq,field.transforms0.header.stamp,field.transforms0.header.frame_id,field.transforms0.child_frame_id,field.transforms0.transform.translation.x,field.transforms0.transform.translation.y,field.transforms0.transform.translation.z,field.transforms0.transform.rotation.x,field.transforms0.transform.rotation.y,field.transforms0.transform.rotation.z,field.transforms0.transform.rotation.w
1634956464639505562,0,1634956464639142663,world,cf33,-2.009558916091919,-0.053178008645772934,0.019899653270840645,0.0006999499636584428,-0.01443013339906093,0.02885227791320237,0.9994792781140353
1634956464639554451,0,1634956464639167247,world,cf3,1.482761025428772,0.0208763275295496,0.016969606280326843,-0.00422753953784063,-0.011889459602980828,0.08402730551183228,0.9963835509422194
1634956464639596077,0,1634956464639176047,world,cf41,-1.9890599250793457,-1.0103850364685059,0.01864228956401348,-0.020417422260521973,-0.0041158311480896425,0.046211503908555836,0.9987145166205933
1634956464639614096,0,1634956464639183590,world,cf47,-2.9538378715515137,-1.024552822113037,0.009563072584569454,-0.015758379119310835,0.0011187333636482107,0.1010435640230406,0.9947565632317863
1634956464639627297,0,1634956464639191692,world,cf17,0.4948767125606537,0.025591682642698288,0.015703199431300163,-0.014979121599059403,-0.006698528915163759,0.05797028666883021,0.998183450819551
1634956464639655722,0,1634956464639199095,world,cf20,0.5074795484542847,-1.0168569087982178,0.013366288505494595,0.003817101204768626,-0.015259177275095267,0.028016620973512322,0.99948369481273
1634956464639671297,0,1634956464639206079,world,cf27,1.4856418371200562,-1.0227237939834595,0.012545102275907993,0.006030065324994382,-0.01643914130167888,0.07155152234447706,0.997283195785243
1634956464639710269,0,1634956464639212924,world,cf28,-3.0097556114196777,0.0029553163331001997,0.015397843904793262,-0.008491161511273172,-0.004796936773382476,0.03351684006195593,0.9993905698004374
1634956464649213468,0,1634956464648894709,world,cf33,-2.009599208831787,-0.053173232823610306,0.0199058149009943,0.0011335878920046476,-0.014829768565627547,0.028941308623606703,0.999470456590856
1634956464649242662,0,1634956464648915801,world,cf3,1.482805609703064,0.020949210971593857,0.017002079635858536,-0.0035887225440499764,-0.012366333945188273,0.0832160411165725,0.9964483355177742
1634956464649261240,0,1634956464648923274,world,cf41,-1.9891268014907837,-1.0105152130126953,0.018666544929146767,-0.020943851843556856,-0.0038015157374856464,0.04706210948632555,0.9986651397734628
1634956464649294275,0,1634956464648930049,world,cf47,-2.9538803100585938,-1.0245147943496704,0.009545240551233292,-0.0164380820462749,0.0020192358870968425,0.10124648476795758,0.9947235100605615
1634956464649314878,0,1634956464648936893,world,cf17,0.49482443928718567,0.025602294132113457,0.01565653085708618,-0.015353536444797963,-0.006502512931987637,0.05873945808856856,0.998134090344413
1634956464649338066,0,1634956464648943179,world,cf20,0.507521390914917,-1.017012357711792,0.01348892878741026,0.004210311438805787,-0.015799071583550383,0.027152024112870543,0.9994975888921694
1634956464649349520,0,1634956464648949465,world,cf27,1.4855854511260986,-1.02272629737854,0.012525700964033604,0.0069454338759963995,-0.017759458708579978,0.07158826136515777,0.9972519658588627
1634956464649359368,0,1634956464648955890,world,cf28,-3.0097453594207764,0.003034558380022645,0.015408908016979694,-0.008558751331495383,-0.004981453674592352,0.03346731610551851,0.999390750231173
1634956464659642353,0,1634956464659185865,world,cf33,-2.009587526321411,-0.053135279566049576,0.019963260740041733,0.0007703849678503517,-0.014500809799430863,0.02873796217860585,0.999481496853235
1634956464659676366,0,1634956464659210729,world,cf3,1.482790470123291,0.020862940698862076,0.016996730118989944,-0.0037235615448438725,-0.012176851787461853,0.08405168385912659,0.9963800348312953
1634956464659700601,0,1634956464659219390,world,cf41,-1.989120364189148,-1.0104812383651733,0.018727509304881096,-0.019984047597335002,-0.0037830899903813497,0.046877230832964745,0.9986935722738908
1634956464659718481,0,1634956464659227212,world,cf47,-2.953890085220337,-1.0246213674545288,0.00960003212094307,-0.016448082054100956,0.0021423080016832094,0.10164300137130992,0.9946826485796358
1634956464659738665,0,1634956464659234894,world,cf17,0.49487873911857605,0.0255941990762949,0.01567169465124607,-0.01498425692838032,-0.006678926029440953,0.05835075818879329,0.998161336162742
1634956464659772329,0,1634956464659242088,world,cf20,0.5075694918632507,-1.016882300376892,0.0133436918258667,0.0013115942879892888,-0.014024221518909105,0.02739515190828114,0.9995254406882971
1634956464659810603,0,1634956464659249212,world,cf27,1.4855997562408447,-1.022616982460022,0.012523775920271873,0.00724942699453347,-0.017866382292879616,0.07088263300120905,0.9972982956622515
1634956464659821079,0,1634956464659256266,world,cf28,-3.0097615718841553,0.003032427979633212,0.015417673625051975,-0.008139942729856088,-0.00479444812323198,0.0336051879545101,0.9993905372486226
1634956464669516273,0,1634956464669189133,world,cf33,-2.0095932483673096,-0.05317698046565056,0.019933626055717468,0.000616413480314462,-0.014588712652698213,0.02911558921199469,0.9994693952104771
1634956464669544140,0,1634956464669212949,world,cf3,1.482791781425476,0.020915573462843895,0.01697096787393093,-0.003752240799484771,-0.012036091105459388,0.08379721912187454,0.9964030706834079
1634956464669568306,0,1634956464669221470,world,cf41,-1.989159107208252,-1.0105478763580322,0.018719689920544624,-0.01973900929391331,-0.003990129538163215,0.047514348870665524,0.9986675307777659
1634956464669585557,0,1634956464669228943,world,cf47,-2.9539005756378174,-1.0246410369873047,0.009593796916306019,-0.016638800982207286,0.0020786196127886734,0.10155267561615068,0.9946888376359618
1634956464669599316,0,1634956464669236765,world,cf17,0.49502137303352356,0.025735601782798767,0.015777459368109703,-0.01368158043160672,-0.006488666926164116,0.055842493215364934,0.9983247605413313
1634956464669617475,0,1634956464669244588,world,cf20,0.5074418187141418,-1.016923427581787,0.013398328796029091,0.002897818851097654,-0.014329129123410295,0.028512658998512005,0.9994865216606502
1634956464669683056,0,1634956464669251642,world,cf27,1.4855623245239258,-1.022760272026062,0.012495401315391064,0.005937874782841912,-0.01758222654465247,0.07193161547197845,0.9972369074840678
1634956464669765749,0,1634956464669258347,world,cf28,-3.0097575187683105,0.0029675601981580257,0.015421084128320217,-0.0077510045609334895,-0.004751901013882881,0.03394496349153924,0.9993823496633352
1634956464679365679,0,1634956464679060260,world,cf33,-2.00960373878479,-0.05323730409145355,0.019960692152380943,0.001244888725854448,-0.014997210905441243,0.028819649682344184,0.9994713411145438
1634956464679397876,0,1634956464679082470,world,cf3,1.4827969074249268,0.020876124501228333,0.016966762021183968,-0.003887160227413339,-0.012020446396868474,0.08377452220308056,0.9964046508740473
1634956464679414988,0,1634956464679090921,world,cf41,-1.9891550540924072,-1.010550618171692,0.018733970820903778,-0.01942519968576842,-0.004033993336733339,0.04725768640600865,0.9986856860847053
1634956464679463528,0,1634956464679098533,world,cf47,-2.9539220333099365,-1.0246522426605225,0.00957008358091116,-0.01735117892618601,0.0028905289571295504,0.10158641168718384,0.9946711931049081
1634956464679489789,0,1634956464679106356,world,cf17,0.4948785603046417,0.025526130571961403,0.015658888965845108,-0.015529909516237334,-0.006423432057027853,0.058111855188812164,0.998168609863855
1634956464679519821,0,1634956464679113549,world,cf20,0.5074516534805298,-1.0169695615768433,0.013419922441244125,0.004407795538652907,-0.015588131474664394,0.027991458309293574,0.9994768930582323
1634956464679541681,0,1634956464679120603,world,cf27,1.4855791330337524,-1.0226823091506958,0.012549792416393757,0.00645612382380973,-0.01709575806894131,0.07147605893028673,0.9972749001759816
1634956464679582259,0,1634956464679127727,world,cf28,-3.0096888542175293,0.002851366065442562,0.01540291402488947,-0.00818813398138201,-0.004895398346682963,0.03240542827998204,0.9994292760145268
1634956464689115071,0,1634956464688840941,world,cf33,-2.0095906257629395,-0.05315938964486122,0.019972972571849823,0.0012830337184799629,-0.014425440326328967,0.029040781046106284,0.9994733080638526
1634956464689135675,0,1634956464688864129,world,cf3,1.4828145503997803,0.020940333604812622,0.016955455765128136,-0.002998061188679052,-0.01278472947022962,0.08339387765962235,0.9964301397942427
1634956464689154532,0,1634956464688872021,world,cf41,-1.9891643524169922,-1.010568380355835,0.01874600164592266,-0.019460435076179353,-0.003971486638345301,0.04769391723240665,0.9986645127466759
1634956464689174507,0,1634956464688879284,world,cf47,-2.953929901123047,-1.0246524810791016,0.009616777300834656,-0.017063042726451164,0.002919327333654783,0.10166989610977009,0.994667563724616
1634956464689190151,0,1634956464688886618,world,cf17,0.4948906898498535,0.025564920157194138,0.015685632824897766,-0.015264998387978497,-0.006842730655558587,0.058158897617349034,0.9981671701119633
1634956464689323131,0,1634956464688893532,world,cf20,0.5075026154518127,-1.0168935060501099,0.013285542838275433,0.0018094176115312,-0.013103184233464911,0.02841133053213415,0.9995087937923531
1634956464689336051,0,1634956464688900516,world,cf27,1.4855867624282837,-1.0226932764053345,0.012535394169390202,0.006677521477611936,-0.017333282378182314,0.07166703881555395,0.9972556360213384
1634956464689360636,0,1634956464688907291,world,cf28,-3.009758949279785,0.0029479702934622765,0.015412180684506893,-0.00823976756997082,-0.004537061818867756,0.03368880995081036,0.9993881054848226
1634956464699256696,0,1634956464698956585,world,cf33,-2.0096185207366943,-0.05319146811962128,0.019999634474515915,0.0010595434877115183,-0.014502728767145817,0.028568678410342933,0.9994860573513723
1634956464699291966,0,1634956464698981169,world,cf3,1.4828102588653564,0.020845569670200348,0.016996260732412338,-0.004101536833220644,-0.01210007110099279,0.08436081827611801,0.996353360015783
1634956464699304328,0,1634956464698989550,world,cf41,-1.9891058206558228,-1.0104892253875732,0.0187124814838171,-0.0196978803559141,-0.004389348436197528,0.04628755520879357,0.9987242809517463
1634956464699331567,0,1634956464698997023,world,cf47,-2.9539361000061035,-1.0247067213058472,0.00958247110247612,-0.017983246239676974,0.0036836193612990757,0.10173830189144428,0.9946418208236217
1634956464699348469,0,1634956464699005265,world,cf17,0.49485471844673157,0.025562437251210213,0.015663621947169304,-0.01557667532905698,-0.006519265387010735,0.05822941584175497,0.998160408699541
1634956464699375567,0,1634956464699012738,world,cf20,0.507543683052063,-1.016963005065918,0.01343210507184267,0.0027101389850420275,-0.015714347778828703,0.027246289677030563,0.9995015528349134
1634956464699382621,0,1634956464699019652,world,cf27,1.4855748414993286,-1.0227012634277344,0.012517265044152737,0.005889646513281464,-0.017109730643786576,0.07172078400976166,0.9972605969967282
1634956464699415517,0,1634956464699028173,world,cf28,-3.009734630584717,0.002689582062885165,0.015459148213267326,-0.008393424626629445,-0.004599988495352461,0.03306362057912132,0.9994074181849361
1634956464709213100,0,1634956464708939738,world,cf33,-2.0095696449279785,-0.05318629369139671,0.01997017301619053,0.0005854786272710192,-0.014404023390581474,0.028759031272956967,0.9994824157758763
1634956464709249627,0,1634956464708963135,world,cf3,1.4827988147735596,0.020886914804577827,0.016967691481113434,-0.0032826794409534553,-0.012869556290364128,0.0842191045987834,0.9963587410953729
1634956464709260662,0,1634956464708970958,world,cf41,-1.9891692399978638,-1.0105416774749756,0.01873902417719364,-0.019307991325360364,-0.0037623543437580597,0.048014357277200236,0.9986529265245404
1634956464709272047,0,1634956464708978780,world,cf47,-2.953951120376587,-1.0247234106063843,0.009632989764213562,-0.017538107792935048,0.0035319530591483733,0.10197483667563113,0.9946260969669003
1634956464709348663,0,1634956464708986113,world,cf17,0.4948571026325226,0.025603173300623894,0.015681223943829536,-0.015501226847981678,-0.006820324584457315,0.058009470075265315,0.9981723781593823
1634956464709365495,0,1634956464708993028,world,cf20,0.5075974464416504,-1.0167427062988281,0.013324868865311146,0.0024470517280511706,-0.01348708495298892,0.02675301431909766,0.9995480912403131
1634956464709380372,0,1634956464708999593,world,cf27,1.4855583906173706,-1.0227807760238647,0.012517613358795643,0.005346498445270752,-0.016330473104039102,0.07230599960353118,0.9972344624128807
1634956464709396645,0,1634956464709006367,world,cf28,-3.0097639560699463,0.002922072308138013,0.015427895821630955,-0.008112070160243677,-0.004759162204366829,0.03352803368351596,0.9993935239184537
1634956464719439932,0,1634956464719123338,world,cf33,-2.009594678878784,-0.053194042295217514,0.01995059661567211,0.0008379236252824392,-0.014641966943886085,0.028850120099133524,0.9994761534215201
1634956464719481488,0,1634956464719148202,world,cf3,1.4828232526779175,0.02089027874171734,0.016997238621115685,-0.004248638086120443,-0.012094758207354934,0.0842922312923295,0.9963586129712932
1634956464719498250,0,1634956464719159866,world,cf41,-1.9891197681427002,-1.0104960203170776,0.018730081617832184,-0.019871048630311507,-0.0036089404022324766,0.04758854955680896,0.9986628294507531
1634956464719519552,0,1634956464719170342,world,cf47,-2.9539501667022705,-1.0246978998184204,0.009653283283114433,-0.01761752951645305,0.0037934142721104064,0.10170817524315051,0.9946510341575108
1634956464719595261,0,1634956464719218882,world,cf17,0.4950582683086395,0.025732731446623802,0.015782590955495834,-0.013937734652945934,-0.00693351944469176,0.05561499904687543,0.9983309259668711
1634956464719613490,0,1634956464719229149,world,cf20,0.5074650049209595,-1.0167731046676636,0.013309037312865257,0.0010584064215271361,-0.012268970629610784,0.0287692507461042,0.9995102212319014
1634956464719641147,0,1634956464719238368,world,cf27,1.4855860471725464,-1.0227599143981934,0.012575365602970123,0.0060815516505504895,-0.01688565836928031,0.07202640768676323,0.9972412375482163
1634956464719683960,0,1634956464719248914,world,cf28,-3.0097482204437256,0.003006576094776392,0.01542231347411871,-0.00791205537993598,-0.00471381364957824,0.03343368605733478,0.999398503089314
1634956464729497956,0,1634956464729218518,world,cf33,-2.009561061859131,-0.053153783082962036,0.019942639395594597,0.0011512620272811293,-0.014189456821501786,0.028997196318076353,0.9994781120747699
1634956464729536579,0,1634956464729240518,world,cf3,1.4828286170959473,0.020916417241096497,0.016979210078716278,-0.0035509372926885497,-0.012470105174985055,0.08393302858270497,0.9963870402781255
1634956464729558579,0,1634956464729248760,world,cf41,-1.9891014099121094,-1.0104591846466064,0.018712377175688744,-0.020316295339536106,-0.003434361193795891,0.0471638962946358,0.9986746317961501
1634956464729597481,0,1634956464729257420,world,cf47,-2.9539575576782227,-1.0246883630752563,0.009598217904567719,-0.0184924953556335,0.0038950493889263653,0.10175039462129697,0.9946304406161064
1634956464729614243,0,1634956464729271738,world,cf17,0.4948117733001709,0.02561318874359131,0.015625087544322014,-0.01548618493808806,-0.006295250903719608,0.058800881500411475,0.9981297532019057
1634956464729632472,0,1634956464729283052,world,cf20,0.5075317621231079,-1.0170562267303467,0.01344476267695427,0.0034620963749019203,-0.01547461996903276,0.027754453393055493,0.9994889896053671
1634956464729642948,0,1634956464729333478,world,cf27,1.4855833053588867,-1.0227441787719727,0.01255575567483902,0.006308191528752852,-0.01714564693403784,0.07179530047838975,0.9972520585790072
1634956464729690301,0,1634956464729341370,world,cf28,-3.009760856628418,0.0029022586531937122,0.015452777035534382,-0.008081417872176542,-0.004712757853579694,0.033597548980266914,0.9993916576103221
1634956464739356232,0,1634956464739082311,world,cf33,-2.0095560550689697,-0.05314212292432785,0.01994553953409195,0.0007575027107092853,-0.014323828165722096,0.02870397899320102,0.9994850352688028
1634956464739386613,0,1634956464739105220,world,cf3,1.4828205108642578,0.020928261801600456,0.016993556171655655,-0.00348410078931458,-0.012347807131913384,0.08371421664587478,0.9964072072361232
1634956464739408893,0,1634956464739113112,world,cf41,-1.989155650138855,-1.0105575323104858,0.01873212493956089,-0.01970516373809112,-0.003930272618889082,0.04723000627850871,0.99868192433133
1634956464739430544,0,1634956464739124915,world,cf47,-2.9536523818969727,-1.0239696502685547,0.009405196644365788,-0.006610510272093371,-0.006856684917982378,0.09945677721228824,0.994996299738056
1634956464739463300,0,1634956464739135391,world,cf17,0.4948568344116211,0.02553989179432392,0.01567257195711136,-0.015612247201309095,-0.006916345474770561,0.05784276426735339,0.9981796614460295
1634956464739487256,0,1634956464739174922,world,cf20,0.5074975490570068,-1.0167299509048462,0.013271592557430267,0.0013117011498746682,-0.013352195829082036,0.027898315542508014,0.9995207262966216
1634956464739506811,0,1634956464739181976,world,cf27,1.485611081123352,-1.0226709842681885,0.012503895908594131,0.006165001549576218,-0.017638618149972796,0.07104370007427772,0.9972981823834882
1634956464739525529,0,1634956464739188890,world,cf28,-3.0096845626831055,0.0028346756007522345,0.015427358448505402,-0.00856283943577741,-0.005077710283729023,0.03229346440679358,0.9994288502918448
1634956464748973622,0,1634956464748803627,world,cf33,-2.0095808506011963,-0.053187549114227295,0.01991887204349041,0.0003597881515377333,-0.014373779943032747,0.02884963097557319,0.9994803468779206
1634956464748997229,0,1634956464748826116,world,cf3,1.4827839136123657,0.0209561325609684,0.016980277374386787,-0.003078278501772576,-0.012771377816279236,0.0836433575950529,0.9964091553374876
1634956464749019718,0,1634956464748834148,world,cf41,-1.9891890287399292,-1.0106091499328613,0.01874963939189911,-0.019857388763633597,-0.004091082765900653,0.04761821217146212,0.9986598284815936
1634956464749033617,0,1634956464748870117,world,cf47,-2.9536380767822266,-1.0240325927734375,0.009385507553815842,-0.0073644315951976866,-0.006941104522165988,0.09920409707726996,0.9950156447706617
1634956464749061414,0,1634956464748878218,world,cf17,0.4950239658355713,0.025771303102374077,0.015776442363858223,-0.013778380182433488,-0.006414838630757689,0.0558454098916274,0.9983237432210684
1634956464749099268,0,1634956464748884923,world,cf20,0.5074748992919922,-1.0169250965118408,0.013453622348606586,0.003206989585955634,-0.014452043281029808,0.028434143074356034,0.9994860445100902
1634956464749161009,0,1634956464748891768,world,cf27,1.4856125116348267,-1.0226682424545288,0.012575805187225342,0.007009896609474624,-0.01702973544780935,0.07178920194123008,0.9972497981673114
1634956464749187688,0,1634956464748922149,world,cf28,-3.009737730026245,0.002940105041489005,0.015434094704687595,-0.008116951890486479,-0.004476311011346775,0.03327443719453694,0.9994032667352674
1634956464758743827,0,1634956464758448326,world,cf33,-2.009572744369507,-0.05319321155548096,0.01992858201265335,0.0007228739630394743,-0.014930349920775087,0.028661759850740324,0.999477396256031
1634956464758770437,0,1634956464758463062,world,cf3,1.482804536819458,0.020813144743442535,0.016998305916786194,-0.0038375165648298418,-0.01193771056070441,0.08448384775916234,0.9963459459449766
1634956464758784266,0,1634956464758468021,world,cf41,-1.9891488552093506,-1.0105206966400146,0.018707243725657463,-0.020131347175853458,-0.003998745594179717,0.047157643995479046,0.9986765720228716
1634956464758802285,0,1634956464758472701,world,cf47,-2.9538841247558594,-1.0245511531829834,0.009533627890050411,-0.016647489654767828,0.002121487155686823,0.10151040501194261,0.9946929164595242
1634956464758846006,0,1634956464758477240,world,cf17,0.494851678609848,0.025547148659825325,0.01569879800081253,-0.015509924917691978,-0.006610209616232487,0.0583061094095529,0.9981563730014442
1634956464758870102,0,1634956464758481640,world,cf20,0.5075088143348694,-1.0170061588287354,0.013421560637652874,0.0034967534597559096,-0.014823818334358693,0.02771667904054666,0.9994997813047259
1634956464758888750,0,1634956464758485761,world,cf27,1.4856029748916626,-1.0228116512298584,0.012564374133944511,0.006653475037554238,-0.01628893409940137,0.07185047787233349,0.9972602021164523
1634956464758902928,0,1634956464758490091,world,cf28,-3.0096921920776367,0.0028588047716766596,0.015424242243170738,-0.008717339840970487,-0.005114641714561549,0.03194934632384503,0.9994383861427916
1634956464769171316,0,1634956464768947472,world,cf33,-2.009589195251465,-0.053244564682245255,0.019940538331866264,0.0007839568312224948,-0.015199488741614654,0.02863175753305392,0.9994741534498273
1634956464769193665,0,1634956464768965561,world,cf3,1.482840657234192,0.020892297849059105,0.016980299726128578,-0.003217502297567591,-0.012479557784761893,0.08418908802280439,0.996366451550006
1634956464769238713,0,1634956464768972476,world,cf41,-1.9891668558120728,-1.0105507373809814,0.018714871257543564,-0.02019515999142414,-0.003848022302371015,0.047199204401202254,0.9986739124164478
1634956464769261761,0,1634956464768978901,world,cf47,-2.953883647918701,-1.0245997905731201,0.009559464640915394,-0.01622071288637263,0.002045679353151608,0.10142628011014723,0.9947087077996553
1634956464769285019,0,1634956464768986793,world,cf17,0.4950229525566101,0.025758396834135056,0.015773078426718712,-0.013571410658835806,-0.006725613136305323,0.055918944038987284,0.9983204168192868
1634956464769298219,0,1634956464768993219,world,cf20,0.5074679255485535,-1.0169326066970825,0.01340273767709732,0.0033733430472287587,-0.014228249964893787,0.02869871085551694,0.9994811461227538
1634956464769326435,0,1634956464769040362,world,cf27,1.485568642616272,-1.0227205753326416,0.01253487914800644,0.0069398388745562185,-0.01770686790489057,0.07197861616295138,0.9972248413876684
1634956464769356537,0,1634956464769046997,world,cf28,-3.0097694396972656,0.00295582739636302,0.015381897799670696,-0.008037873498974193,-0.0045399372212730285,0.03375694509396881,0.9993874374923692
1634956464779266705,0,1634956464778998093,world,cf33,-2.009610891342163,-0.053188506513834,0.019936654716730118,0.0009086684765919876,-0.014739965604037416,0.028863708605453786,0.9994742588286758
1634956464779293176,0,1634956464779017788,world,cf3,1.4827739000320435,0.020879698917269707,0.016984663903713226,-0.004075586879704616,-0.012121238995269982,0.08398451828988923,0.9963849988053919
1634956464779316223,0,1634956464779026449,world,cf41,-1.9891515970230103,-1.0105701684951782,0.018699370324611664,-0.019928443980143495,-0.003966854846052728,0.0473807114154804,0.9986702105144238
1634956464779332078,0,1634956464779033922,world,cf47,-2.953883647918701,-1.02456796169281,0.009554900228977203,-0.01607171052515166,0.0014351941457252508,0.10135058925979949,0.9947199095198865
1634956464779351494,0,1634956464779041046,world,cf17,0.49502649903297424,0.02576369419693947,0.01574922911822796,-0.013536290352815145,-0.006411536638016015,0.05590599438797715,0.9983236854011404
1634956464779369164,0,1634956464779048030,world,cf20,0.5073828101158142,-1.016907811164856,0.013415991328656673,0.0027501297374241296,-0.0141920860519709,0.02871807546930002,0.9994830131729405
1634956464779378453,0,1634956464779054455,world,cf27,1.4855705499649048,-1.0227820873260498,0.012537041679024696,0.006223064649272429,-0.01755721438688369,0.07170048872963121,0.997252253747905
1634956464779405342,0,1634956464779061021,world,cf28,-3.0097293853759766,0.002974832896143198,0.015413030982017517,-0.007838187017406724,-0.00488265709961949,0.03333067610529436,0.9994017152848457
1634956464789202785,0,1634956464788919576,world,cf33,-2.009570598602295,-0.05319884791970253,0.01994617097079754,0.00087113857366398,-0.014400280758696014,0.02904571355439479,0.9994739714248552
1634956464789223528,0,1634956464788943531,world,cf3,1.4828131198883057,0.020827440544962883,0.016989486292004585,-0.0029597999401880944,-0.012970644925378139,0.08400365674449653,0.9963766293967792
1634956464789239732,0,1634956464788951913,world,cf41,-1.989146113395691,-1.0105663537979126,0.018716605380177498,-0.019761685116823545,-0.0037284535044241336,0.047481085708260734,0.9986696755863641
1634956464789264595,0,1634956464788959735,world,cf47,-2.953911066055298,-1.0246745347976685,0.009617052972316742,-0.016165364034840563,0.0019942111651654252,0.1017171038592343,0.9946800163419086
1634956464789291973,0,1634956464788967557,world,cf17,0.4950242340564728,0.025742463767528534,0.015749240294098854,-0.013836425404955102,-0.006256158782757464,0.05586873609076182,0.9983226423040393
1634956464789320050,0,1634956464788988370,world,cf20,0.507461667060852,-1.0169748067855835,0.013377240858972073,0.0029187609464045184,-0.014209974341392295,0.028558663590231823,0.9994868484365839
1634956464789347219,0,1634956464788994935,world,cf27,1.4855774641036987,-1.0227802991867065,0.0125234080478549,0.006049610288107889,-0.01666798837004281,0.07207023446961006,0.99724192735893
1634956464789380254,0,1634956464789001850,world,cf28,-3.0097272396087646,0.0027036406099796295,0.01545766182243824,-0.008564933973467904,-0.004772913552499842,0.032948880768292096,0.9994089415541405
1634956464799229171,0,1634956464798982209,world,cf33,-2.0096006393432617,-0.05315421521663666,0.01992752030491829,0.0006638794534570369,-0.014254175331937806,0.029338093897233363,0.9994676853186174
1634956464799248517,0,1634956464799005257,world,cf3,1.4827971458435059,0.020823825150728226,0.01699122227728367,-0.00401083012392253,-0.01226777691594713,0.08439538731754684,0.996348750935524
1634956464799258435,0,1634956464799013149,world,cf41,-1.989153504371643,-1.0105451345443726,0.01871182955801487,-0.020073214816931927,-0.003841715683888355,0.04733693663628794,0.9986698762340884
1634956464799268422,0,1634956464799020343,world,cf47,-2.953887462615967,-1.0246208906173706,0.009583497419953346,-0.01665314320065011,0.0022324128520389446,0.1012249311073538,0.9947216708590942
1634956464799290422,0,1634956464799027397,world,cf17,0.4948064982891083,0.025610344484448433,0.01563212275505066,-0.015272936534064006,-0.006129602801436823,0.05893343963247922,0.9981262520704522
1634956464799321013,0,1634956464799034591,world,cf20,0.5074933171272278,-1.0167701244354248,0.0133560411632061,0.0028066714063152156,-0.01477091747280841,0.027648906927136122,0.9995046175673042
1634956464799371718,0,1634956464799041365,world,cf27,1.4855684041976929,-1.0227699279785156,0.012609973549842834,0.006226532787501938,-0.016525861302106797,0.07219153828862554,0.9972344298093561
1634956464799417395,0,1634956464799048210,world,cf28,-3.0097177028656006,0.002739913994446397,0.015441671945154667,-0.008428819234255827,-0.004695536433221738,0.033171827878680324,0.9994030902389225
1634956464809194794,0,1634956464808915006,world,cf33,-2.0095741748809814,-0.05320233106613159,0.019935885444283485,0.0007448021776976348,-0.015056637093188163,0.028657883362692094,0.999475596835826
1634956464809217492,0,1634956464808939870,world,cf3,1.482816219329834,0.02089417725801468,0.016999583691358566,-0.003439500972855456,-0.01226321996376666,0.0837197836248965,0.99640793909873
1634956464809287125,0,1634956464808948531,world,cf41,-1.9891610145568848,-1.010569453239441,0.01871686801314354,-0.019858842977204912,-0.004265078399631331,0.04688469382292943,0.9986937773647044
1634956464809312827,0,1634956464808956353,world,cf47,-2.9539060592651367,-1.0246045589447021,0.009570805355906487,-0.01684604799470697,0.002788781234839702,0.1016696782938882,0.9946716593337731
1634956464809347399,0,1634956464808964105,world,cf17,0.4948071539402008,0.02558894082903862,0.015618281438946724,-0.015459457297314728,-0.00620964677108532,0.058873217114773106,0.9981264397728414
1634956464809361716,0,1634956464808971579,world,cf20,0.507451057434082,-1.0169254541397095,0.013385281898081303,0.0030146411118423845,-0.014287933690177203,0.028727848048479287,0.99948060393203
1634956464809417450,0,1634956464808978702,world,cf27,1.4856252670288086,-1.0227904319763184,0.01251599844545126,0.005930811116999616,-0.01657268204790468,0.07184056877415244,0.9972608005769804
1634956464809439450,0,1634956464808985687,world,cf28,-3.009734869003296,0.002964521525427699,0.01541643775999546,-0.008097175635034913,-0.005040901791699748,0.03308017603496436,0.9994071877915215
1634956464819389708,0,1634956464819070390,world,cf33,-2.0095834732055664,-0.053142908960580826,0.019936097785830498,0.0007755576933320518,-0.014148203354604068,0.029361459732263395,0.9994684244809796
1634956464819426794,0,1634956464819092810,world,cf3,1.482825517654419,0.020901158452033997,0.01696222648024559,-0.0033338267225727324,-0.012836869576526851,0.08401742427328873,0.9963760197823617
1634956464819455569,0,1634956464819100981,world,cf41,-1.9891419410705566,-1.0105019807815552,0.018734419718384743,-0.019501119770758607,-0.0035336145518167035,0.04777696708786362,0.9986613947238427
1634956464819480922,0,1634956464819108315,world,cf47,-2.953929901123047,-1.0246633291244507,0.009618671610951424,-0.01713991507874027,0.002953329537842574,0.10174217643179584,0.9946587508742161
1634956464819492376,0,1634956464819115508,world,cf17,0.4950275421142578,0.025765912607312202,0.015735074877738953,-0.013799111402148278,-0.006389578358774653,0.05591030436427727,0.9983199866169173
1634956464819501735,0,1634956464819122423,world,cf20,0.507552444934845,-1.0169917345046997,0.013393312692642212,0.002011739377322412,-0.014208633179140973,0.028095820377841172,0.9995022223712934
1634956464819531418,0,1634956464819128988,world,cf27,1.4855917692184448,-1.0227482318878174,0.012550560757517815,0.005709538744018534,-0.01652016502878295,0.07151965849679429,0.9972860290625023
1634956464819575977,0,1634956464819135902,world,cf28,-3.0097436904907227,0.0029382372740656137,0.015451268292963505,-0.00844652501234633,-0.004289681173834277,0.03345132310502976,0.9993954491757332
1634956464829329001,0,1634956464828971619,world,cf33,-2.009615421295166,-0.053136155009269714,0.01997189223766327,0.0009173990411289817,-0.01456183895465443,0.029107698277064203,0.9994697859996916
1634956464829363153,0,1634956464828995714,world,cf3,1.4827531576156616,0.020989540964365005,0.016988059505820274,-0.003019048389345782,-0.012850016451920625,0.08266955676112062,0.996489591922027
1634956464829383897,0,1634956464829004445,world,cf41,-1.9891743659973145,-1.0105640888214111,0.018729006871581078,-0.020184145819042668,-0.0036132155629046737,0.04782529820512124,0.9986452251838202
1634956464829428386,0,1634956464829012197,world,cf47,-2.953932762145996,-1.02467679977417,0.00961676612496376,-0.017458408152074438,0.0030264659588788248,0.10148310127176546,0.9946794582401207
1634956464829454856,0,1634956464829020508,world,cf17,0.49486279487609863,0.025602594017982483,0.01567312888801098,-0.015069809579265757,-0.006764912438979118,0.05846707832155848,0.9981526624477232
1634956464829473294,0,1634956464829027981,world,cf20,0.5075392723083496,-1.0169217586517334,0.013473467901349068,0.002515532526618262,-0.015004945827047055,0.027671489695163885,0.9995012818175298
1634956464829491733,0,1634956464829035105,world,cf27,1.485558271408081,-1.0227142572402954,0.012554869055747986,0.0070938279934617265,-0.017710493433059592,0.07156512706682722,0.9972534525458739
1634956464829508215,0,1634956464829042159,world,cf28,-3.009747266769409,0.00298196985386312,0.015432563610374928,-0.00839209917536607,-0.004815789804512028,0.03347274614907993,0.9993927937028708
1634956464839233372,0,1634956464838888562,world,cf33,-2.009561061859131,-0.053189124912023544,0.019967632368206978,0.0007083666133934362,-0.01444563612755005,0.02872650825648665,0.9994826709538297
1634956464839263893,0,1634956464838911819,world,cf3,1.482775330543518,0.020836591720581055,0.017029497772455215,-0.00380781274039251,-0.012221393316867411,0.08360206432539832,0.9964169975206467
1634956464839287639,0,1634956464838920061,world,cf41,-1.989080548286438,-1.010481595993042,0.01872624084353447,-0.02024040119867992,-0.004152498540197778,0.04623161107737662,0.9987170375298402
1634956464839314249,0,1634956464838927185,world,cf47,-2.9539377689361572,-1.024668574333191,0.009636440314352512,-0.017342561984538266,0.0031699429035601336,0.10173370764607377,0.9946554376940709
1634956464839328008,0,1634956464838934378,world,cf17,0.4950467050075531,0.02575165033340454,0.01580003648996353,-0.013527457896146124,-0.0065000803690372835,0.05532517031795256,0.9983555891401388
1634956464839339742,0,1634956464838941851,world,cf20,0.5075494647026062,-1.016752004623413,0.013274939730763435,0.0019196147826670714,-0.013656068117019065,0.027207127754767173,0.9995346912849025
1634956464839378434,0,1634956464838948486,world,cf27,1.485621690750122,-1.0227530002593994,0.012597629800438881,0.0066246881393420215,-0.017230763368090384,0.07113888585890782,0.9972955796651074
1634956464839403717,0,1634956464838955121,world,cf28,-3.009740114212036,0.0029354647267609835,0.015461310744285583,-0.008195821412413226,-0.004842615348660551,0.033295166627219985,0.999400224868509
1634956464849272748,0,1634956464848972078,world,cf33,-2.009571075439453,-0.0531456358730793,0.01998031511902809,0.0006242547596026654,-0.014908363260702455,0.028845362654283117,0.9994725089086868
1634956464849302990,0,1634956464848995266,world,cf3,1.4828113317489624,0.020885607227683067,0.017023807391524315,-0.003283801392376001,-0.0128018619467504,0.08385789893766432,0.9963900751035571
1634956464849314863,0,1634956464849003507,world,cf41,-1.9891411066055298,-1.0104873180389404,0.018726512789726257,-0.01977595694416127,-0.003750960822479597,0.047665819706577094,0.9986605086071798
1634956464849334559,0,1634956464849010561,world,cf47,-2.9536314010620117,-1.0239522457122803,0.009372234344482422,-0.007513983377454881,-0.0065189652968664835,0.09919578104051732,0.9950182109735597
1634956464849385543,0,1634956464849017685,world,cf17,0.4950330853462219,0.025777777656912804,0.015790356323122978,-0.013479267196350567,-0.006730596509606474,0.05581638941048175,0.9983273707054473
1634956464849398394,0,1634956464849024739,world,cf20,0.5073963403701782,-1.016798973083496,0.013401909731328487,0.0026741565902856437,-0.014364356299705516,0.028929768381208743,0.9994746533334576
1634956464849452242,0,1634956464849031514,world,cf27,1.485583782196045,-1.0227900743484497,0.012566900812089443,0.0053994083717806216,-0.016434382912707733,0.07202123966905574,0.9972530764475213
1634956464849465373,0,1634956464849038149,world,cf28,-3.0097568035125732,0.0029754696879535913,0.015420936979353428,-0.008439441068345608,-0.004398645292849877,0.0336194703239788,0.9993893930641734
1634956464859115938,0,1634956464858800322,world,cf33,-2.0096023082733154,-0.05327153205871582,0.019958248361945152,0.0009543113976428868,-0.014882190127863147,0.028779959257504612,0.9994745237633077
1634956464859135704,0,1634956464858823160,world,cf3,1.4827849864959717,0.020899847149848938,0.01702902466058731,-0.0036902991768589135,-0.01234034470433913,0.0833649649887755,0.996435838474803
1634956464859146878,0,1634956464858830913,world,cf41,-1.989132285118103,-1.0105092525482178,0.01871115155518055,-0.019839915417898642,-0.003932401251072543,0.04711226588169126,0.9986848093267986
1634956464859154910,0,1634956464858837967,world,cf47,-2.953887939453125,-1.024577021598816,0.009558573365211487,-0.0164483753921971,0.0018045011119223102,0.10163206204699747,0.9946844317102633
1634956464859183545,0,1634956464858845370,world,cf17,0.494842529296875,0.025567781180143356,0.015696408227086067,-0.015469238950470423,-0.006743197267053924,0.0585727313710865,0.9981405046768924
1634956464859226847,0,1634956464858852215,world,cf20,0.5074824094772339,-1.0168657302856445,0.013410594314336777,0.003367394843024268,-0.014171648499646061,0.027956811176731336,0.9995029973639911
1634956464859238371,0,1634956464858858920,world,cf27,1.4855515956878662,-1.0228427648544312,0.012596176005899906,0.006648444395627377,-0.017162867640836688,0.07217217552313232,0.9972223479453914
1634956464859280975,0,1634956464858865485,world,cf28,-3.009744882583618,0.002951743546873331,0.015445270575582981,-0.008161775521999337,-0.005185875419809233,0.03354599970878341,0.9993903931997731
1634956464869442715,0,1634956464869051389,world,cf33,-2.0095977783203125,-0.05322253704071045,0.01994003728032112,0.0006507952136738846,-0.014876317680502396,0.028518102135909607,0.9994823607690255
1634956464869465762,0,1634956464869080025,world,cf3,1.4827897548675537,0.020925458520650864,0.016980811953544617,-0.0030644726732290523,-0.01288866894918015,0.08307845089289219,0.9964549474096612
1634956464869493140,0,1634956464869090990,world,cf41,-1.989145040512085,-1.0105268955230713,0.01869485154747963,-0.02014344411790119,-0.003941177468650591,0.04729877878619173,0.9986698825460616
1634956464869506131,0,1634956464869101396,world,cf47,-2.9538824558258057,-1.0245367288589478,0.009550349786877632,-0.015530502118307053,0.001535141810395512,0.10116722235859599,0.9947470230987483
1634956464869547757,0,1634956464869112222,world,cf17,0.4950702488422394,0.025700189173221588,0.015804065391421318,-0.01399521760881418,-0.006958482544807184,0.055723642857177964,0.9983238898431116
1634956464869572062,0,1634956464869121232,world,cf20,0.5074986815452576,-1.0168516635894775,0.013279125094413757,0.0007559593580635834,-0.013675398998214771,0.028146223836249817,0.9995099809764024
1634956464869586170,0,1634956464869130171,world,cf27,1.4855761528015137,-1.0227398872375488,0.012558449059724808,0.006472418031981853,-0.016955155741052115,0.07168619276263974,0.9972621121178793
1634956464869609218,0,1634956464869139251,world,cf28,-3.009746551513672,0.0029735821299254894,0.015424709767103195,-0.00798229221947428,-0.005237328824476409,0.0333613492838033,0.9993977555366389
1634956464879370623,0,1634956464879003882,world,cf33,-2.0096044540405273,-0.053203996270895004,0.019923167303204536,0.0005735288182187321,-0.01471841066393932,0.028768414836601742,0.9994775724147148
1634956464879397721,0,1634956464879026581,world,cf3,1.4828084707260132,0.020862005650997162,0.017030108720064163,-0.004214839145751561,-0.012012597365164204,0.08421785518821807,0.9963660399185704
1634956464879419442,0,1634956464879035102,world,cf41,-1.9891295433044434,-1.0105459690093994,0.018686890602111816,-0.02002317581990237,-0.003728208713900351,0.04744347781473201,0.9986662552137795
1634956464879440535,0,1634956464879042924,world,cf47,-2.953901767730713,-1.0245994329452515,0.009543313644826412,-0.01639072777529426,0.001875157461429082,0.1017931696174422,0.9946687782607463
1634956464879454363,0,1634956464879051235,world,cf17,0.4950515627861023,0.025728091597557068,0.01577957719564438,-0.013683895728348331,-0.0067869541968713955,0.0558383992388163,0.9983229745031774
1634956464879476084,0,1634956464879058499,world,cf20,0.5074575543403625,-1.0168715715408325,0.013391370885074139,0.0030956089275655696,-0.014366291576939028,0.028559070306274994,0.9994840700956346
1634956464879510237,0,1634956464879065832,world,cf27,1.4855642318725586,-1.0226645469665527,0.01253245398402214,0.0068161168250188645,-0.017846683557934825,0.07198570132446128,0.9972226908981946
1634956464879532656,0,1634956464879072956,world,cf28,-3.0097811222076416,0.0029458061326295137,0.015421128831803799,-0.008029279478181038,-0.004979432671574435,0.03368199691801486,0.9993879421950944
1634956464889501632,0,1634956464889226733,world,cf33,-2.0095374584198,-0.05321779474616051,0.019879579544067383,0.0007265370655981439,-0.014482299500559185,0.028798756531008815,0.9994800482087355
1634956464889543677,0,1634956464889246499,world,cf3,1.482815146446228,0.020871784538030624,0.016957059502601624,-0.0032660493258726804,-0.01268667638352109,0.0839804413433703,0.9963812857716234
1634956464889562394,0,1634956464889255369,world,cf41,-1.989100694656372,-1.010504961013794,0.018689610064029694,-0.020178742826484904,-0.003878885670293272,0.04705446241398602,0.9986809551357381
1634956464889602973,0,1634956464889264029,world,cf47,-2.9539036750793457,-1.0245167016983032,0.009509609080851078,-0.017420673760320353,0.0030246565614356078,0.10171493898078242,0.9946564445910746
1634956464889633074,0,1634956464889272061,world,cf17,0.49488013982772827,0.02554444596171379,0.01565825566649437,-0.015507777222030571,-0.007085148710999501,0.05772667005855327,0.9981868267400276
1634956464889650884,0,1634956464889319414,world,cf20,0.5075557827949524,-1.0168936252593994,0.013276614248752594,0.00031328164518383604,-0.01312663916185016,0.027888267312792047,0.9995248059679237
1634956464889690345,0,1634956464889327096,world,cf27,1.4855806827545166,-1.0228171348571777,0.012527309358119965,0.005633310680375006,-0.016679474007483697,0.0720563117850612,0.9972451799279584
1634956464889741050,0,1634956464889333871,world,cf28,-3.0097720623016357,0.0030404594726860523,0.015383550897240639,-0.00782304157072196,-0.004442566966285633,0.03396102010835027,0.9993826658155189
1634956464899377158,0,1634956464899045479,world,cf33,-2.009596347808838,-0.053188506513834,0.019897272810339928,0.0009498518333461369,-0.01488131772359067,0.02906218586582021,0.9994663743803515
1634956464899398390,0,1634956464899064196,world,cf3,1.4827715158462524,0.02086329646408558,0.016944073140621185,-0.004065642273699043,-0.011930003242740244,0.08391035637831236,0.99639359575822
1634956464899425000,0,1634956464899072158,world,cf41,-1.989143967628479,-1.01054847240448,0.018674131482839584,-0.019799962910689046,-0.004003412145012005,0.04749243398909441,0.9986673134100885
1634956464899444277,0,1634956464899079422,world,cf47,-2.9538986682891846,-1.0245978832244873,0.009578355588018894,-0.01612354808103985,0.002184333503208699,0.10135170773987899,0.9947175937031753
1634956464899467255,0,1634956464899086616,world,cf17,0.4948026239871979,0.025594310835003853,0.015617902390658855,-0.015481481927217737,-0.006559707478008456,0.05838403704014092,0.9981525926300224
1634956464899485204,0,1634956464899093460,world,cf20,0.5075162649154663,-1.016844391822815,0.013361025601625443,0.0028738246984528304,-0.014854424746563398,0.027108764483000935,0.9995179848733371
1634956464899502176,0,1634956464899100235,world,cf27,1.4855852127075195,-1.0227988958358765,0.01252165250480175,0.006086656911922412,-0.017398394896284378,0.07180821999616964,0.9972481276009754
1634956464899526341,0,1634956464899106730,world,cf28,-3.009690284729004,0.0027946042828261852,0.015406608581542969,-0.0082325472646603,-0.005123886928663351,0.03205221260970154,0.9994391560345731
1634956464909234526,0,1634956464908953412,world,cf33,-2.009570598602295,-0.05318126454949379,0.01993347331881523,0.0006585364928152294,-0.014378027735595671,0.028835970397257375,0.9994805278040041
1634956464909262603,0,1634956464908976181,world,cf3,1.4828040599822998,0.020903829485177994,0.016952864825725555,-0.0035005081888457665,-0.012520482922269876,0.08399016516519418,0.9963817722667032
1634956464909289632,0,1634956464908984212,world,cf41,-1.9891266822814941,-1.010516881942749,0.01872176118195057,-0.020247688317140907,-0.0032702565336081226,0.047534498848268256,0.9986590048456281
1634956464909311562,0,1634956464908992524,world,cf47,-2.953882932662964,-1.0246939659118652,0.009631714783608913,-0.016437230648493673,0.0021933473203376457,0.10144493739234979,0.9947029362345338
1634956464909332235,0,1634956464908999787,world,cf17,0.49500328302383423,0.025772618129849434,0.015740729868412018,-0.014090797497895314,-0.006506779062118931,0.05527926465333431,0.9983502963146236
1634956464909347670,0,1634956464909041553,world,cf20,0.5075188279151917,-1.0167688131332397,0.013398653827607632,0.0037954996777634733,-0.014399839554533632,0.027451978976141884,0.9995121948497143
1634956464909359474,0,1634956464909048607,world,cf27,1.4855782985687256,-1.022754430770874,0.012552905827760696,0.005832932720741084,-0.0167942396163903,0.07213933557221656,0.997236103776223
1634956464909402566,0,1634956464909055381,world,cf28,-3.0097501277923584,0.0029729607049375772,0.015423464588820934,-0.008457859671692186,-0.004542853518667509,0.033674153210775076,0.9993867512115713
1634956464919291223,0,1634956464918966178,world,cf33,-2.0095956325531006,-0.05318213999271393,0.01997779868543148,0.0012416352913532922,-0.014311434620365158,0.02887423320220128,0.9994798246277387
1634956464919325655,0,1634956464918990623,world,cf3,1.4828002452850342,0.020904097706079483,0.01698685809969902,-0.0032489781836774244,-0.012758315581364452,0.08389382836041213,0.9963877232720815
1634956464919361624,0,1634956464918999493,world,cf41,-1.9891610145568848,-1.0105793476104736,0.018754852935671806,-0.019765466444312093,-0.003926398696783862,0.047447077912371176,0.9986704584231427
1634956464919389491,0,1634956464919007246,world,cf47,-2.953918933868408,-1.0246803760528564,0.009662434458732605,-0.016394529068025333,0.0022495537415003286,0.10157061105766677,0.9946906905636415
1634956464919404507,0,1634956464919015347,world,cf17,0.49499884247779846,0.025736771523952484,0.015744201838970184,-0.014273818588308312,-0.0063792602185951475,0.05542626979301338,0.9983403686913614
1634956464919418476,0,1634956464919022750,world,cf20,0.5074877738952637,-1.0168063640594482,0.013270043767988682,0.0008500538290133332,-0.013134780895093623,0.028515695709002514,0.9995066833381141
1634956464919437403,0,1634956464919029874,world,cf27,1.4856007099151611,-1.02265465259552,0.012512031942605972,0.006556213934982946,-0.017302654951701815,0.0712739612775499,0.9972851430931212
1634956464919500191,0,1634956464919037766,world,cf28,-3.009739875793457,0.0029857128392904997,0.015459220856428146,-0.00860063466169273,-0.004576690103296465,0.033322215618633556,0.9993971747695607
1634956464929245811,0,1634956464928904912,world,cf33,-2.0095841884613037,-0.05318659171462059,0.019984528422355652,0.0006698587254517574,-0.014333257794192094,0.02878834003463587,0.9994825363598622
1634956464929288345,0,1634956464928926982,world,cf3,1.4828119277954102,0.020874783396720886,0.017009831964969635,-0.004268526513548932,-0.012137649433727804,0.08406484025157968,0.9963772176144452
1634956464929309717,0,1634956464928934595,world,cf41,-1.9891029596328735,-1.0104774236679077,0.01871890388429165,-0.02033931156729348,-0.00418715402233258,0.04618871851563699,0.998716868000158
1634956464929325780,0,1634956464928941440,world,cf47,-2.953646421432495,-1.023961067199707,0.009411531500518322,-0.0066900433877345,-0.00690051669843285,0.0992461129696801,0.9950164999884044
1634956464929352670,0,1634956464928948633,world,cf17,0.4950008988380432,0.025757981464266777,0.01575448177754879,-0.01427574979989902,-0.006148190554480941,0.05622491849517232,0.9982971307485401
1634956464929370829,0,1634956464928955478,world,cf20,0.5074059963226318,-1.0167858600616455,0.013276536017656326,0.0013303255924510377,-0.012949034373592499,0.029092026429461237,0.9994919743253755
1634956464929380956,0,1634956464928962252,world,cf27,1.4855643510818481,-1.0227105617523193,0.012562010437250137,0.007131817351531961,-0.01740144023148517,0.071905814782322,0.9972341153709218
1634956464929392060,0,1634956464928968748,world,cf28,-3.0097546577453613,0.002918388694524765,0.015453394502401352,-0.008151002120812007,-0.004670007092784606,0.03357239023298721,0.9993921386584066
1634956464939261511,0,1634956464938914885,world,cf33,-2.0096139907836914,-0.05321301147341728,0.019982121884822845,0.0011878428117761252,-0.014458686196585968,0.028711501674222983,0.9994824586227286
1634956464939307956,0,1634956464938937863,world,cf3,1.4828351736068726,0.02088233456015587,0.017017893493175507,-0.0031753958631931373,-0.012954064078542084,0.08407004414444676,0.9963705820439059
1634956464939325067,0,1634956464938945965,world,cf41,-1.989151954650879,-1.0105420351028442,0.018731875345110893,-0.01971863566693286,-0.0039689605732824975,0.047615941226655994,0.998663178904931
1634956464939336382,0,1634956464938953019,world,cf47,-2.953878879547119,-1.0246094465255737,0.009610394015908241,-0.015884054262314005,0.0014270328178518858,0.10131615041591141,0.9947264438338961
1634956464939355868,0,1634956464938960422,world,cf17,0.4948940575122833,0.02555467002093792,0.01569647528231144,-0.015283559592140337,-0.0067955256144791604,0.058084894515619094,0.9981715176596284
1634956464939385690,0,1634956464938967825,world,cf20,0.5074850916862488,-1.016863226890564,0.013418179005384445,0.00289452709963307,-0.014882940143392349,0.027731668717818014,0.9995004123839484
1634956464939414325,0,1634956464938974949,world,cf27,1.4855618476867676,-1.022652268409729,0.012555709108710289,0.0062693582652898466,-0.017017836203899152,0.07192730349914693,0.9972449806387698
1634956464939427945,0,1634956464938981794,world,cf28,-3.009755849838257,0.0029250956140458584,0.015446849167346954,-0.008497945277910313,-0.004713740801307676,0.03363154180410819,0.9993870546337841
1634956464949548407,0,1634956464949179013,world,cf33,-2.009613513946533,-0.05324363708496094,0.019974514842033386,0.0009113396562060972,-0.014721338708456306,0.02898935801416863,0.9994708944079304
1634956464949571316,0,1634956464949203178,world,cf3,1.482806921005249,0.02086329460144043,0.017011309042572975,-0.0032790181093966357,-0.012705755938916968,0.08405875886809312,0.9963743959294693
1634956464949590871,0,1634956464949211629,world,cf41,-1.9891833066940308,-1.0106147527694702,0.018729764968156815,-0.020220525132058426,-0.004074003460652233,0.04769057306392483,0.9986491586638527
1634956464949615875,0,1634956464949218962,world,cf47,-2.9536399841308594,-1.023944616317749,0.009359849616885185,-0.0071042679324619835,-0.006789137239750832,0.09945456079368596,0.9949935815521719
1634956464949628865,0,1634956464949226505,world,cf17,0.4950404763221741,0.0256868414580822,0.01578507013618946,-0.014346935118604723,-0.006716650102769293,0.055650186816192986,0.998324650988556
1634956464949636688,0,1634956464949233909,world,cf20,0.5075316429138184,-1.0168272256851196,0.013419813476502895,0.0028258613686961164,-0.014198392818646585,0.027192496125315494,0.9995253815203329
1634956464949657990,0,1634956464949241033,world,cf27,1.4855693578720093,-1.022688865661621,0.012535786256194115,0.006565477554720367,-0.01730609024827322,0.07194005305010469,0.9972371947094358
1634956464949667628,0,1634956464949248226,world,cf28,-3.009716272354126,0.0027351682074368,0.015468561090528965,-0.008043568529380676,-0.0049360100792363495,0.033129509324393125,0.9994065100957347
1634956464959529885,0,1634956464959176484,world,cf33,-2.0096027851104736,-0.05321647226810455,0.019980520009994507,0.0009823494829531035,-0.014943130900446217,0.028712914593273953,0.9994755156400504
1634956464959551955,0,1634956464959199392,world,cf3,1.4827772378921509,0.020871924236416817,0.017017265781760216,-0.0036642353822939375,-0.012540452287314992,0.08391233603894584,0.9963874900338622
1634956464959579752,0,1634956464959207354,world,cf41,-1.9891421794891357,-1.0105371475219727,0.018733952194452286,-0.019760364482450766,-0.0038115190918227505,0.047748855801539564,0.9986566212104024
1634956464959602520,0,1634956464959214129,world,cf47,-2.95361328125,-1.0239835977554321,0.009401680901646614,-0.006383838725223835,-0.007653623040935589,0.09906473208693685,0.9950310786674057
1634956464959630457,0,1634956464959221322,world,cf17,0.494863897562027,0.025570809841156006,0.015723923221230507,-0.015179557122688706,-0.006455326126772059,0.05797858289080182,0.9981815434760004
1634956464959706934,0,1634956464959228167,world,cf20,0.5075141787528992,-1.0167745351791382,0.013263434171676636,0.001966788612327551,-0.013340255810651926,0.027860346416693955,0.9995208704249264
1634956464959719925,0,1634956464959234592,world,cf27,1.48557710647583,-1.0226913690567017,0.012547832913696766,0.0063059858377445535,-0.01738744719959882,0.07177198397927802,0.9972495643208743
1634956464959732217,0,1634956464959241367,world,cf28,-3.0096914768218994,0.002761906711384654,0.015462895855307579,-0.008544867702619597,-0.005188292729211173,0.03232675359364578,0.9994273599699963
1634956464969254832,0,1634956464968986568,world,cf33,-2.009582757949829,-0.05322452262043953,0.01990256831049919,0.0013306173129262414,-0.014683123273337668,0.029005968143904038,0.9994705043974741
1634956464969278648,0,1634956464969006054,world,cf3,1.48283052444458,0.02087450958788395,0.016995517536997795,-0.003938212454851424,-0.011882733341689055,0.08435784129826354,0.9963568867341098
1634956464969301067,0,1634956464969013737,world,cf41,-1.9891654253005981,-1.0105531215667725,0.01870184950530529,-0.019710026793276485,-0.004091574833664766,0.04743221801614822,0.9986715969492962
1634956464969311544,0,1634956464969021280,world,cf47,-2.9538938999176025,-1.0245670080184937,0.009544928558170795,-0.015827866173642263,0.0014424363528003272,0.10140632775546879,0.9947181282759995
1634956464969335290,0,1634956464969032525,world,cf17,0.49500736594200134,0.025729093700647354,0.01571313850581646,-0.013839814814848252,-0.006429397036738885,0.05598614366036909,0.9983149172969796
1634956464969363087,0,1634956464969075198,world,cf20,0.5075724720954895,-1.0168009996414185,0.013236258178949356,0.0013305549490294393,-0.014322163516123618,0.027183255140818884,0.9995269760720289
1634956464969377335,0,1634956464969082182,world,cf27,1.485569953918457,-1.022715449333191,0.012532951310276985,0.006401096436656685,-0.017007285638722013,0.07205817810172646,0.9972348756277387
1634956464969396751,0,1634956464969088678,world,cf28,-3.00968861579895,0.002833328442648053,0.01541694812476635,-0.00835833877216906,-0.004872128789024966,0.03223634482079943,0.99943344881319
1634956464979162975,0,1634956464978938433,world,cf33,-2.009556293487549,-0.053196199238300323,0.019940776750445366,0.0007891256114774764,-0.014705886820192342,0.028687592119547658,0.9994799328810877
1634956464979185394,0,1634956464978962319,world,cf3,1.4827828407287598,0.020825564861297607,0.01696939393877983,-0.004054542539389583,-0.012079756434282364,0.08453471022762936,0.9963390602280006
1634956464979201597,0,1634956464978970071,world,cf41,-1.9891325235366821,-1.0105868577957153,0.018701842054724693,-0.019820164547745083,-0.004278269057054242,0.04708038561918472,0.998685283150365
1634956464979213890,0,1634956464979006319,world,cf47,-2.9538631439208984,-1.0246148109436035,0.009555824100971222,-0.01618763040050789,0.0017353667437593385,0.1014829563899128,0.9947040558310015
1634956464979234074,0,1634956464979013722,world,cf17,0.49483609199523926,0.025625184178352356,0.015651877969503403,-0.014963260154732722,-0.006096458623632956,0.05831393690802617,0.9981675304276726
1634956464979257192,0,1634956464979019100,world,cf20,0.5074593424797058,-1.0168994665145874,0.01335782092064619,0.002617146746994622,-0.013893715650610637,0.02835942353359944,0.9994978030516959
1634956464979280798,0,1634956464979025805,world,cf27,1.485589623451233,-1.0227110385894775,0.012551166117191315,0.007291418768859579,-0.01718731550618211,0.07123686925778383,0.9972846834562223
1634956464979298538,0,1634956464979033278,world,cf28,-3.009739398956299,0.002979832934215665,0.015388094820082188,-0.008104635251241896,-0.005041142365837679,0.033232062434576166,0.9994020871488293
1634956464989389388,0,1634956464989058965,world,cf33,-2.009589195251465,-0.05310928076505661,0.01994059793651104,0.0009204779067526082,-0.014465280831168086,0.028817541942439243,0.9994795934121388
1634956464989427033,0,1634956464989080197,world,cf3,1.4828424453735352,0.020870868116617203,0.016942819580435753,-0.0036262603135608505,-0.01247688419196059,0.08416347450718699,0.9963672451239436
1634956464989448893,0,1634956464989087950,world,cf41,-1.989129900932312,-1.0104880332946777,0.018664170056581497,-0.020249828256500332,-0.0034965976779046727,0.04728414760664512,0.9986700794783901
1634956464989471103,0,1634956464989095004,world,cf47,-2.953896999359131,-1.0245299339294434,0.009567934088408947,-0.016282888653287867,0.0022054259443627495,0.10153993545862142,0.9946957550631085
1634956464989501904,0,1634956464989101988,world,cf17,0.49483445286750793,0.025652436539530754,0.01562146469950676,-0.015419772685260543,-0.006079425514082246,0.05799534863893357,0.9981792477967082
1634956464989514335,0,1634956464989108763,world,cf20,0.5075250267982483,-1.0169012546539307,0.013328435830771923,0.00296870315502069,-0.015130153812489886,0.027540758170811808,0.9995017618226416
1634956464989533821,0,1634956464989115467,world,cf27,1.4856053590774536,-1.0226715803146362,0.012461643666028976,0.006605578967709012,-0.01766675129308551,0.07120546607578143,0.9972833267563338
1634956464989563015,0,1634956464989121963,world,cf28,-3.009751796722412,0.0029725665226578712,0.015402177348732948,-0.008231880031165876,-0.004553315167697368,0.033159840400382265,0.9994057876842406
1634956464999274972,0,1634956464998912142,world,cf33,-2.0095627307891846,-0.053176507353782654,0.01988031342625618,0.0005002943190397074,-0.014511048717144143,0.029207669044235662,0.9994679040568163
1634956464999294877,0,1634956464998935330,world,cf3,1.4828146696090698,0.020856568589806557,0.01697050966322422,-0.004392622076360555,-0.011606311525016236,0.08380857926893578,0.9964045967602724
1634956464999316877,0,1634956464998943362,world,cf41,-1.9891630411148071,-1.010603666305542,0.01869249902665615,-0.02004183244357748,-0.003888575776016251,0.0478720733350026,0.9986448160008371
1634956464999345652,0,1634956464998950556,world,cf47,-2.9538841247558594,-1.0245484113693237,0.00951782800257206,-0.016931062566502196,0.002254003426359405,0.10130561144505171,0.9947087170014484
1634956464999371773,0,1634956464998957819,world,cf17,0.4949871897697449,0.02579192817211151,0.015712900087237358,-0.013477986201641824,-0.006674029162588264,0.05519263623593369,0.998362446272902
1634956464999392307,0,1634956464998964734,world,cf20,0.5074963569641113,-1.016771674156189,0.013254201039671898,0.001311857487849893,-0.013181222619868354,0.028202392197572146,0.9995144618636147
1634956464999437215,0,1634956464998971369,world,cf27,1.485552191734314,-1.0227612257003784,0.012508495710790157,0.005264056932875002,-0.01639142845644914,0.07220422595006763,0.9972412749845024
1634956464999464453,0,1634956464998978004,world,cf28,-3.0097267627716064,0.0028035768773406744,0.015406407415866852,-0.008400281966255469,-0.004874260673993972,0.03267615317681339,0.9994188040352927
1634956465009624936,0,1634956465009246741,world,cf33,-2.009594678878784,-0.05314848944544792,0.019957352429628372,0.000928716476576732,-0.014591631092359246,0.02873583061735928,0.9994801017661638
1634956465009652314,0,1634956465009266856,world,cf3,1.4827914237976074,0.020836690440773964,0.016964634880423546,-0.004224759151185124,-0.011784574268799999,0.08446774067213232,0.996347567872358
1634956465009682206,0,1634956465009275167,world,cf41,-1.9891279935836792,-1.0105023384094238,0.018691346049308777,-0.020289596391257304,-0.003665046340672467,0.04729268006355262,0.9986682643030202
1634956465009702111,0,1634956465009282430,world,cf47,-2.9538824558258057,-1.0246137380599976,0.009561780840158463,-0.016783911961584495,0.00224447346530945,0.10134714233713296,0.994707001774003
1634956465009742759,0,1634956465009289694,world,cf17,0.49484238028526306,0.025648435577750206,0.015664340928196907,-0.015178877225739044,-0.006462535481585604,0.05825542399930392,0.9981653885483991
1634956465009771464,0,1634956465009296538,world,cf20,0.5074685215950012,-1.0169391632080078,0.013403956778347492,0.00253692504598994,-0.014459722814632227,0.02821864587421415,0.9994939661911225
1634956465009805827,0,1634956465009303104,world,cf27,1.4855742454528809,-1.0227211713790894,0.012543631717562675,0.006537713741330353,-0.017522175307830585,0.0717863309643954,0.9972446812884932
1634956465009814347,0,1634956465009309808,world,cf28,-3.0097594261169434,0.002938848454505205,0.015388031490147114,-0.008183344851830364,-0.004805762582755403,0.03352668366804988,0.999392765130535
