%time,field.transforms0.header.seq,field.transforms0.header.stamp,field.transforms0.header.frame_id,field.transforms0.child_frame_id,field.transforms0.transform.translation.x,field.transforms0.transform.translation.y,field.transforms0.transform.translation.z,field.transforms0.transform.rotation.x,field.transforms0.transform.rotation.y,field.transforms0.transform.rotation.z,field.transforms0.transform.rotation.w
1635384963361363723,0,1635384963360927699,world,cf33,-2.0128257274627686,0.006315114442259073,0.017479760572314262,-0.0028085996796733356,-0.019676902890418138,0.0954554211913161,0.9952352454699687
1635384963361406397,0,1635384963360954309,world,cf3,1.4927341938018799,-0.019975099712610245,0.012617712840437889,-0.001984845558665304,-0.00011772652613889103,0.06186877390924961,0.9980823119079606
1635384963361441038,0,1635384963360965414,world,cf41,-1.969470739364624,-0.9992806315422058,0.017795953899621964,-0.018910035472145634,-0.013699664720652089,0.04838601122445166,0.9985557188573762
1635384963361468696,0,1635384963360975122,world,cf47,-3.0136966705322266,-0.9342617988586426,0.009614518843591213,-0.0010246116940579447,-0.017828538030670055,0.04384543217934104,0.9988787070908921
1635384963361495166,0,1635384963360985948,world,cf17,0.4955730736255646,0.0037249296437948942,0.013526329770684242,-0.016056118889302508,0.011453908190975082,0.08980659594738256,0.9957639199919371
1635384963361507528,0,1635384963360994189,world,cf20,0.49844077229499817,-1.0873773097991943,0.009801960550248623,0.005788375836363299,0.00011481346577221308,0.0356539575454544,0.9993474254904507
1635384963361551039,0,1635384963361003129,world,cf27,1.4616978168487549,-1.0947155952453613,0.00838748924434185,-0.02616448480470601,-0.013551323500114218,0.004887697689624608,0.999553846362263
1635384963361586868,0,1635384963361012627,world,cf28,-3.005380868911743,0.059081416577100754,0.014843174256384373,0.005552348732792833,-0.016112482326126838,0.05529545671868849,0.9983245823894709
1635384963371196922,0,1635384963370894995,world,cf33,-2.0128166675567627,0.006374006159603596,0.017469123005867004,-0.003182551743842797,-0.019654708928751725,0.09612875894264955,0.9951697470710561
1635384963371222694,0,1635384963370916925,world,cf3,1.4926706552505493,-0.020010024309158325,0.012550707906484604,-0.0029914133774962895,-0.001210188435603031,0.061654384453991,0.9980923423048365
1635384963371251259,0,1635384963370924468,world,cf41,-1.9693125486373901,-0.9984922409057617,0.017630767077207565,-0.009779646878423469,-0.023909890744882076,0.04348381185391503,0.9987200977942491
1635384963371290859,0,1635384963370931243,world,cf47,-3.013690233230591,-0.9342292547225952,0.009684721007943153,-0.0014498726680196334,-0.01779469902690328,0.04349175602539217,0.9988942455103124
1635384963371307482,0,1635384963370937948,world,cf17,0.4955770671367645,0.003924796357750893,0.013527997769415379,-0.01529935899464657,0.011320618417430671,0.09026158203759195,0.995736220101022
1635384963371336327,0,1635384963370944583,world,cf20,0.4984603524208069,-1.08745539188385,0.009873777627944946,0.005457786299671571,-0.0011594436198869745,0.03386464666700717,0.999410853435822
1635384963371350155,0,1635384963370950799,world,cf27,1.4616491794586182,-1.0947445631027222,0.008396069519221783,-0.02697720533955318,-0.012543647406153808,0.00578318203684591,0.9995406155366306
1635384963371366289,0,1635384963370956945,world,cf28,-3.005356788635254,0.059085097163915634,0.014828094281256199,0.003197470860713228,-0.01708145598111794,0.0539194709235001,0.9983940558201405
1635384963381355445,0,1635384963380986120,world,cf33,-2.0128328800201416,0.006322732660919428,0.017533328384160995,-0.0026189647073414546,-0.0190570238762409,0.09651963213181403,0.9951451811057427
1635384963381383521,0,1635384963381007632,world,cf3,1.4927107095718384,-0.020067015662789345,0.012535235844552517,-0.003237887930721817,-0.0013004790311325523,0.061865608118522,0.9980783893904142
1635384963381393998,0,1635384963381015594,world,cf41,-1.9693636894226074,-0.9987118244171143,0.017667585983872414,-0.01009106548314464,-0.02301031177136935,0.04493566626511914,0.9986738616019292
1635384963381413414,0,1635384963381022229,world,cf47,-3.0137381553649902,-0.9344140291213989,0.009743967093527317,-0.0014454343276816932,-0.019772286123942075,0.04249506557305173,0.9988999633711974
1635384963381435763,0,1635384963381028864,world,cf17,0.4956023097038269,0.0038823732174932957,0.013437283225357533,-0.016107698966760287,0.011374641255227582,0.08944672381805917,0.995796386400617
1635384963381454132,0,1635384963381035429,world,cf20,0.4981352388858795,-1.0865720510482788,0.009126419201493263,-0.002805298169957568,0.0073633421505100854,0.0396902110710394,0.9991809639097857
1635384963381513218,0,1635384963381042064,world,cf27,1.461704134941101,-1.0945848226547241,0.0083317244425416,-0.02652518506774892,-0.013307666684784846,0.004089403051860104,0.9995511979619692
1635384963381531447,0,1635384963381049048,world,cf28,-3.0054330825805664,0.05914207175374031,0.014705638401210308,0.003475403054849051,-0.016264781858176813,0.057567434300677324,0.9982030699976581
1635384963391111538,0,1635384963390792919,world,cf33,-2.0128142833709717,0.006317975465208292,0.017463449388742447,-0.004029257124595982,-0.019264738536219003,0.0955535746123749,0.99522969676098
1635384963391127462,0,1635384963390814360,world,cf3,1.4926780462265015,-0.01991574466228485,0.012486334890127182,-0.003577784394685264,-0.00013683417608259359,0.06214800463807735,0.9980605223405737
1635384963391219654,0,1635384963390822741,world,cf41,-1.969283103942871,-0.9986931681632996,0.017596224322915077,-0.011748739486078177,-0.024592855877938316,0.04259663808611389,0.9987205239625427
1635384963391239489,0,1635384963390829446,world,cf47,-3.0136919021606445,-0.9343756437301636,0.009694382548332214,-0.0018592395373911818,-0.02026256176012365,0.041691809937165175,0.9989233027632417
1635384963391262606,0,1635384963390836500,world,cf17,0.49570566415786743,0.004012798424810171,0.013437090441584587,-0.015157451635862587,0.010895403877169032,0.08875555417853846,0.9958785033510466
1635384963391282721,0,1635384963390843135,world,cf20,0.4981370270252228,-1.0867265462875366,0.009160256013274193,-0.004192915542515458,0.00742504570152272,0.038850752622515645,0.9992086404631656
1635384963391302137,0,1635384963390890139,world,cf27,1.4616591930389404,-1.094710111618042,0.008355118334293365,-0.02718724755891954,-0.012793557130425624,0.005527573786012707,0.9995332032474763
1635384963391320785,0,1635384963390897472,world,cf28,-3.0053117275238037,0.05926234647631645,0.014650119468569756,0.004095010858823065,-0.015675259500420646,0.0567341474949288,0.9982578592897149
1635384963401293109,0,1635384963400984337,world,cf33,-2.0128278732299805,0.006335671991109848,0.017488880082964897,-0.0033265986527681495,-0.019844469267126894,0.09560791684477365,0.9952156836673708
1635384963401317484,0,1635384963401006338,world,cf3,1.4926741123199463,-0.019867897033691406,0.012471445836126804,-0.004058432821578967,0.00048671183269133035,0.062311519801356165,0.9980483789549832
1635384963401375104,0,1635384963401014928,world,cf41,-1.9693547487258911,-0.9986873865127563,0.01758376881480217,-0.011366983654693031,-0.023020777403889935,0.04486327158631066,0.9986631676160322
1635384963401401224,0,1635384963401022471,world,cf47,-3.0136947631835938,-0.9343371391296387,0.009682619012892246,-0.0020894368142241027,-0.019771199197866567,0.04231688650987541,0.9989064095560645
1635384963401417148,0,1635384963401030224,world,cf17,0.49567821621894836,0.004027328919619322,0.013503444381058216,-0.014923326456119426,0.010016369489068271,0.08848974726264662,0.9959149217172798
1635384963401440615,0,1635384963401037208,world,cf20,0.4984499514102936,-1.0873438119888306,0.009796354919672012,0.005745610671654811,-0.0007388507344382289,0.03523099412504808,0.9993624062924135
1635384963401501099,0,1635384963401044332,world,cf27,1.4616652727127075,-1.094662070274353,0.008381850086152554,-0.026440562424176074,-0.013156136370382909,0.005259250705395272,0.9995499752471183
1635384963401509969,0,1635384963401051386,world,cf28,-3.0053460597991943,0.05916031077504158,0.014778314158320427,0.0032386441731167906,-0.017507632951304527,0.05322283059985982,0.9984239201237624
1635384963411173102,0,1635384963410805593,world,cf33,-2.0127878189086914,0.0062705702148377895,0.017444511875510216,-0.004010943674496884,-0.0205202287830507,0.09469103017577823,0.9952871150305228
1635384963411197826,0,1635384963410820679,world,cf3,1.4927209615707397,-0.01998521387577057,0.012528880499303341,-0.004385873340509434,-0.00024915798728361604,0.061603842278066465,0.9980910122087652
1635384963411251465,0,1635384963410827384,world,cf41,-1.969049096107483,-0.9982137084007263,0.01747487299144268,-0.009751680247567134,-0.024999124776717074,0.04053491329246597,0.99881773577421
1635384963411272767,0,1635384963410833181,world,cf47,-3.013681650161743,-0.9342978596687317,0.009679239243268967,-0.001991843566049611,-0.019458599331578785,0.04259731980596657,0.9989008278185626
1635384963411303008,0,1635384963410838838,world,cf17,0.49555811285972595,0.0038299302104860544,0.013597766868770123,-0.014936282030113114,0.009848451678334685,0.0897207076378677,0.9958062613277829
1635384963411325707,0,1635384963410844146,world,cf20,0.498455673456192,-1.0874183177947998,0.009839140810072422,0.0060778002304592614,-0.0008665225291958453,0.034181417634099154,0.9993967881535283
1635384963411347707,0,1635384963410849733,world,cf27,1.4616774320602417,-1.0947352647781372,0.00843778531998396,-0.02649579117006565,-0.012865058661600037,0.005450564189221756,0.9995512766566431
1635384963411375434,0,1635384963410855321,world,cf28,-3.0052695274353027,0.05931968241930008,0.014740893617272377,0.004452906981682148,-0.015120988599804066,0.05649618762641884,0.9982783720520332
1635384963421136137,0,1635384963420800476,world,cf33,-2.0128602981567383,0.006289277225732803,0.01745031215250492,-0.004422690267443761,-0.019516324685046178,0.09462669521163425,0.9953116805478125
1635384963421170360,0,1635384963420819404,world,cf3,1.4927172660827637,-0.020027510821819305,0.012599905021488667,-0.0019235544909588726,-7.1528769007825e-05,0.0625794539818237,0.9980381289114622
1635384963421182722,0,1635384963420825759,world,cf41,-1.9693067073822021,-0.999123215675354,0.017713172361254692,-0.019574381910520397,-0.014394997055061514,0.04475444296945542,0.9987024919700058
1635384963421204024,0,1635384963420831416,world,cf47,-3.013714075088501,-0.934299647808075,0.009693445637822151,-0.0014778484098627064,-0.020225988983969972,0.042332254942460686,0.9988977452798582
1635384963421223440,0,1635384963420837283,world,cf17,0.4956281781196594,0.00369128305464983,0.013443326577544212,-0.019041999862724875,0.012419805658645137,0.08921082916811592,0.995753271964379
1635384963421260037,0,1635384963420842661,world,cf20,0.4984360337257385,-1.087357997894287,0.0097515769302845,0.005263457441539272,0.000305088027469552,0.03541753747086242,0.999358694852132
1635384963421281618,0,1635384963420848248,world,cf27,1.4616719484329224,-1.0946054458618164,0.008354097604751587,-0.02547126117872332,-0.014473173067592241,0.004913345523566369,0.9995587032041123
1635384963421306552,0,1635384963420853766,world,cf28,-3.0053813457489014,0.05918385088443756,0.014796458184719086,0.004637741515515178,-0.015547161097029872,0.05530163683624382,0.9983378717141259
1635384963431108182,0,1635384963430797455,world,cf33,-2.012864351272583,0.006203676573932171,0.017530983313918114,-0.0038086768121271286,-0.02049513577452664,0.09427760742648678,0.9953276727432337
1635384963431133744,0,1635384963430816452,world,cf3,1.4927116632461548,-0.02008718252182007,0.01265423372387886,-0.0024861001550968214,-0.00026630618611368036,0.062033399130382354,0.998070942257796
1635384963431152392,0,1635384963430823296,world,cf41,-1.9693293571472168,-0.9986183047294617,0.017551500350236893,-0.014609003299933917,-0.01937961559848908,0.04365036222347228,0.998752048007711
1635384963431161821,0,1635384963430828884,world,cf47,-3.013714075088501,-0.9343293905258179,0.009657492861151695,-0.0015741018189403628,-0.01980268906292486,0.042480344765606796,0.9988997927810056
1635384963431199885,0,1635384963430834681,world,cf17,0.49558690190315247,0.0036673189606517553,0.013555718585848808,-0.018069150018950455,0.01298142789999737,0.09004294173393437,0.9956893375903797
1635384963431233269,0,1635384963430839989,world,cf20,0.4984421133995056,-1.087342619895935,0.009791644290089607,0.006049221612370773,-5.332979548025432e-05,0.035624114293216186,0.9993469500401957
1635384963431285930,0,1635384963430845576,world,cf27,1.4617055654525757,-1.0947399139404297,0.008361211977899075,-0.027024505406315864,-0.012340461719451289,0.005298926445285782,0.9995445515286561
1635384963431304787,0,1635384963430851303,world,cf28,-3.005370616912842,0.05909538269042969,0.014798403717577457,0.003567580843486583,-0.01731405226418678,0.053965162657042,0.9983863266193689
1635384963441071077,0,1635384963440700286,world,cf33,-2.012803077697754,0.00632277550175786,0.01743914559483528,-0.0030319857549761476,-0.019806321192554335,0.09567767131539337,0.9952106811700037
1635384963441097198,0,1635384963440722216,world,cf3,1.4927077293395996,-0.020070482045412064,0.012610540725290775,-0.002307081997578118,-0.0003342999752380393,0.06252828069250502,0.9980404699859733
1635384963441108583,0,1635384963440729969,world,cf41,-1.9694091081619263,-0.9987732172012329,0.01763172447681427,-0.013901616026110168,-0.01933049724630328,0.0448300564137762,0.9987108405289346
1635384963441131980,0,1635384963440736604,world,cf47,-3.013723850250244,-0.9342632293701172,0.009567713364958763,-0.0015507552640423186,-0.017118273670858126,0.0438176365674305,0.998891673100885
1635384963441156424,0,1635384963440743239,world,cf17,0.49553945660591125,0.003866930026561022,0.013477429747581482,-0.01755966647632047,0.011845186548185395,0.0889262646209116,0.9958129689502194
1635384963441174164,0,1635384963440750083,world,cf20,0.498434841632843,-1.087435245513916,0.009782550856471062,0.004780367017655121,-0.0006239858922743522,0.0345162339570833,0.9993925096408331
1635384963441195326,0,1635384963440756649,world,cf27,1.4616327285766602,-1.094741702079773,0.008371693082153797,-0.02707682218795404,-0.012746419021035958,0.005734797189090443,0.9995356354845695
1635384963441221238,0,1635384963440763284,world,cf28,-3.005225658416748,0.05932152271270752,0.014775737188756466,0.005812140453197753,-0.014893725016964853,0.05555145256945205,0.998327817951546
1635384963451517629,0,1635384963451129237,world,cf33,-2.012877941131592,0.006271707825362682,0.017512397840619087,-0.0022031018439213116,-0.0197358586148262,0.09614151346503673,0.9951695592288046
1635384963451543890,0,1635384963451148933,world,cf3,1.4926778078079224,-0.019975073635578156,0.012487862259149551,-0.002485876015639437,-0.0017628769003993324,0.06191530188299673,0.998076754602674
1635384963451556391,0,1635384963451155708,world,cf41,-1.9693189859390259,-0.9987663626670837,0.017664710059762,-0.011316679942603654,-0.022225665992244344,0.044741103679938,0.998687231403195
1635384963451565541,0,1635384963451161644,world,cf47,-3.013716697692871,-0.9343137741088867,0.009695001877844334,-0.001026616896561298,-0.01878306081784481,0.043030340187925585,0.9988966575714288
1635384963451576995,0,1635384963451167581,world,cf17,0.4955628514289856,0.0038371074479073286,0.013470864854753017,-0.015967740429654747,0.011693756596748905,0.09026192515126824,0.9957213828125888
1635384963451607725,0,1635384963451173168,world,cf20,0.498451292514801,-1.0873769521713257,0.009800751693546772,0.0056950987603649915,-8.494217356675152e-05,0.03584062443354236,0.9993412871862898
1635384963451628119,0,1635384963451179105,world,cf27,1.461700677871704,-1.0946978330612183,0.008250617422163486,-0.02732682609470111,-0.012246210167741316,0.004978179482106473,0.9995391401246683
1635384963451671072,0,1635384963451184971,world,cf28,-3.005483627319336,0.05884397402405739,0.014821849763393402,0.00373921057192352,-0.016906267157582654,0.05595904257728631,0.9982829168071188
1635384963461120628,0,1635384963460764015,world,cf33,-2.012901544570923,0.00625456590205431,0.017592914402484894,-0.0033750589361954946,-0.018375536113833496,0.09601113781669313,0.9952049085815696
1635384963461143257,0,1635384963460783222,world,cf3,1.49271821975708,-0.019980281591415405,0.012549067847430706,-0.004336451748766104,8.475087289260436e-05,0.061466740039151334,0.9980997083821233
1635384963461187956,0,1635384963460790066,world,cf41,-1.969301700592041,-0.998496413230896,0.01757916994392872,-0.008643022716302427,-0.026408558643899738,0.042299512665619356,0.9987184975842434
1635384963461201785,0,1635384963460796492,world,cf47,-3.0136559009552,-0.9343619346618652,0.009775861166417599,-0.0015178633861196377,-0.020260831661817788,0.04208556629271404,0.9989074030664374
1635384963461218826,0,1635384963460804733,world,cf17,0.4955292046070099,0.003899698844179511,0.013594788499176502,-0.015147717422712152,0.01131723430188082,0.09045958371541016,0.995720608694363
1635384963461237754,0,1635384963460812765,world,cf20,0.4984516203403473,-1.0873934030532837,0.009815323166549206,0.004526030231582587,-0.000148946403468172,0.03417124941047219,0.9994057327127152
1635384963461248928,0,1635384963460821216,world,cf27,1.4616775512695312,-1.0946791172027588,0.00830750446766615,-0.027164773853955475,-0.012205754334143953,0.0052865571027936415,0.9995424688008994
1635384963461326383,0,1635384963460830155,world,cf28,-3.0053153038024902,0.05925598740577698,0.014756089076399803,0.004223681478246793,-0.01651254279717127,0.0555229069676131,0.9983119268279868
1635384963471107899,0,1635384963470782156,world,cf33,-2.0128579139709473,0.006289385724812746,0.0175324659794569,-0.002620376576895527,-0.019246581430463015,0.0961796988323959,0.9951744411219299
1635384963471143029,0,1635384963470803038,world,cf3,1.49267578125,-0.01994928903877735,0.012495610862970352,-0.0034886792145650187,-0.00017135255772673916,0.062093437268282356,0.9980642287968489
1635384963471168941,0,1635384963470810232,world,cf41,-1.9693512916564941,-0.9987075328826904,0.017618238925933838,-0.010381916072935064,-0.023124080978371125,0.0445334593379257,0.9986862689037822
1635384963471187589,0,1635384963470816308,world,cf47,-3.0137369632720947,-0.9343616962432861,0.009629396721720695,-0.003006793233875109,-0.019432925598751045,0.04188117208693139,0.9989290705659472
1635384963471205398,0,1635384963470822385,world,cf17,0.49559181928634644,0.003840443678200245,0.013468104414641857,-0.016220662332339042,0.012034951404629138,0.09020295510887363,0.9957185731660402
1635384963471224605,0,1635384963470829578,world,cf20,0.4984744191169739,-1.0874487161636353,0.009842071682214737,0.005544610405837176,-0.000667692696118874,0.0345024956049029,0.9993890079838504
1635384963471244300,0,1635384963470836004,world,cf27,1.4616841077804565,-1.0947991609573364,0.008332307450473309,-0.02766107614169466,-0.012203155229325005,0.005581193203718659,0.9995272873471515
1635384963471272866,0,1635384963470883636,world,cf28,-3.0054261684417725,0.059100158512592316,0.014723638072609901,0.0034336474147443783,-0.01656264106265056,0.05562285094228287,0.9983085632406012
1635384963481165081,0,1635384963480814614,world,cf33,-2.0128026008605957,0.0062994686886668205,0.017491400241851807,-0.003157074626610265,-0.01972031487492928,0.09550055348965701,0.9952290120088968
1635384963481186942,0,1635384963480835636,world,cf3,1.4927066564559937,-0.01997203379869461,0.012507974170148373,-0.0031658037347068414,-0.0005364020276625871,0.062061471472991285,0.9980671639314587
1635384963481231571,0,1635384963480842900,world,cf41,-1.9692741632461548,-0.9986109733581543,0.01754823885858059,-0.011662111323935744,-0.02233836557340384,0.04457843936475806,0.9986880170137117
1635384963481258739,0,1635384963480849185,world,cf47,-3.0136983394622803,-0.9343750476837158,0.009687632322311401,-0.0022233432402181744,-0.019507621334086737,0.04278779925419498,0.9988912421728928
1635384963481294079,0,1635384963480855541,world,cf17,0.49558258056640625,0.003786282381042838,0.013547937385737896,-0.015758633122783017,0.011346848328170948,0.08943916578683861,0.9958029675284531
1635384963481311540,0,1635384963480861548,world,cf20,0.49840593338012695,-1.0873841047286987,0.009754559956490993,0.004658098264840145,0.0004318027868933154,0.03461383977856658,0.9993898127170859
1635384963481325159,0,1635384963480867833,world,cf27,1.461670994758606,-1.0947552919387817,0.008339177817106247,-0.026907139059592074,-0.012401367783404605,0.0054974263691916665,0.9995458920169917
1635384963481347718,0,1635384963480873770,world,cf28,-3.0053601264953613,0.05907677486538887,0.014809356071054935,0.003181017805185502,-0.017037461130741963,0.05390587250649274,0.9983955944179919
1635384963491138662,0,1635384963490913561,world,cf33,-2.0128283500671387,0.006200655363500118,0.017467815428972244,-0.004629180627977994,-0.019890240729102338,0.09455056205293878,0.9953105747584144
1635384963491153748,0,1635384963490934305,world,cf3,1.4926879405975342,-0.020072532817721367,0.012633797712624073,-0.002278255358676133,-0.0001622056194650466,0.06222302630343877,0.9980596566535986
1635384963491161850,0,1635384963490941149,world,cf41,-1.9695316553115845,-0.9993720054626465,0.017749745398759842,-0.01983562300719296,-0.01458163654480545,0.047420792343791,0.9985715759969731
1635384963491168904,0,1635384963490988921,world,cf47,-3.0137224197387695,-0.934333324432373,0.009629960171878338,-0.0023200988926577225,-0.019242601213197562,0.04287524091789969,0.9988924132036994
1635384963491199495,0,1635384963490995207,world,cf17,0.4956117272377014,0.00367226405069232,0.013399219140410423,-0.019002824695605252,0.01227188089289783,0.08968943948595011,0.99571285923083
1635384963491231552,0,1635384963490999118,world,cf20,0.49844858050346375,-1.0874743461608887,0.009840562008321285,0.005669181112860082,-0.0012314660441882538,0.03405047879687768,0.9994032763457377
1635384963491301883,0,1635384963491007010,world,cf27,1.461692214012146,-1.094643473625183,0.008335371501743793,-0.026540788725588016,-0.012682722349141525,0.004650912859587924,0.9995564536819372
1635384963491323185,0,1635384963491015182,world,cf28,-3.005319356918335,0.0593295581638813,0.014738358557224274,0.005014443809070904,-0.016330588736056677,0.05619457407810152,0.9982736784414383
1635384963500760589,0,1635384963500453913,world,cf33,-2.0128517150878906,0.006273794919252396,0.017470456659793854,-0.004045634419928442,-0.01954615807763087,0.09428728114196987,0.9953449096476054
1635384963500776164,0,1635384963500473329,world,cf3,1.4927078485488892,-0.020052973181009293,0.012599545530974865,-0.0016570789315146506,-0.000554131387978284,0.06212165420119305,0.9980670554161815
1635384963500784894,0,1635384963500479614,world,cf41,-1.9694981575012207,-0.9992309808731079,0.017724737524986267,-0.019506504203921488,-0.013648619486791068,0.048033776257042075,0.9985619499151446
1635384963500812132,0,1635384963500485411,world,cf47,-3.01373553276062,-0.9343123435974121,0.009634203277528286,-0.0016816735306538879,-0.019277989375128077,0.042762904274065636,0.9988978251642336
1635384963500858857,0,1635384963500491278,world,cf17,0.49549031257629395,0.003717042040079832,0.013650464825332165,-0.016493970639449365,0.01345184826979597,0.08971997410944647,0.9957395859141444
1635384963500877644,0,1635384963500496446,world,cf20,0.49843108654022217,-1.0874106884002686,0.009752236306667328,0.00549409576202144,-0.0002981194654304681,0.0350305581396832,0.9993710952558936
1635384963500888330,0,1635384963500502104,world,cf27,1.4616944789886475,-1.0947020053863525,0.008356660604476929,-0.026267812423266843,-0.013111992190812626,0.004997809097867813,0.9995564514300858
1635384963500934705,0,1635384963500507412,world,cf28,-3.0052802562713623,0.05935029685497284,0.014711201190948486,0.005580241339693112,-0.015237435735237021,0.05638030557513098,0.9982774877768507
1635384963510971284,0,1635384963510639953,world,cf33,-2.012864828109741,0.0062810443341732025,0.01747666485607624,-0.004045536842286035,-0.019070160118442377,0.09533289312130158,0.9952545413681051
1635384963510987068,0,1635384963510657973,world,cf3,1.4926759004592896,-0.02005481719970703,0.012698129750788212,-0.0014942588483517585,-0.0013065587030307196,0.06236481182702117,0.9980514467404122
1635384963511004599,0,1635384963510664189,world,cf41,-1.9695111513137817,-0.999252438545227,0.017752956598997116,-0.02010564400826682,-0.013337858558851475,0.04888968739271678,0.9985127255447069
1635384963511062707,0,1635384963510669636,world,cf47,-3.013723373413086,-0.9343453049659729,0.009693789295852184,-0.0012438878559703865,-0.020260088757368167,0.04236526915178272,0.9988959733206668
1635384963511089946,0,1635384963510675014,world,cf17,0.4955873489379883,0.0036769742146134377,0.013529736548662186,-0.01776301801152029,0.012547323058845185,0.08955546912781324,0.9957443737347837
1635384963511155667,0,1635384963510679973,world,cf20,0.4984634816646576,-1.087418794631958,0.009820918552577496,0.005080002524876448,-0.0009579272320250392,0.034390409661596066,0.999395104887488
1635384963511183534,0,1635384963510685281,world,cf27,1.4616787433624268,-1.0946619510650635,0.008310208097100258,-0.02685649087010154,-0.012664850578605792,0.0051971822063501495,0.9995455566181461
1635384963511199039,0,1635384963510690309,world,cf28,-3.0053534507751465,0.05911538377404213,0.014827355742454529,0.003817971966109322,-0.017241138682570597,0.05371421487590113,0.9984001949855879
1635384963520879912,0,1635384963520538594,world,cf33,-2.012794017791748,0.006153255235403776,0.017582910135388374,-0.003507156263561277,-0.021283928946344354,0.0936485557168785,0.9953716101214122
1635384963520894579,0,1635384963520557452,world,cf3,1.4927030801773071,-0.019981317222118378,0.012568455189466476,-0.003977662968590743,-0.0007404589135835979,0.061676950578936546,0.9980879639015736
1635384963520912249,0,1635384963520563737,world,cf41,-1.9691654443740845,-0.9986044764518738,0.017604969441890717,-0.012485534954731729,-0.0220691562948523,0.042080570250601454,0.9987924155522567
1635384963520928592,0,1635384963520569185,world,cf47,-3.01366925239563,-0.9341704845428467,0.009633020497858524,-0.0017600066893980334,-0.017664168431263314,0.042645209506260065,0.9989325631073663
1635384963520939138,0,1635384963520575052,world,cf17,0.4956802427768707,0.0039043701253831387,0.013394099660217762,-0.01756771459598385,0.010366491926029588,0.0882048751853577,0.9958934738427384
1635384963521022320,0,1635384963520580011,world,cf20,0.4984600841999054,-1.0873777866363525,0.009856137447059155,0.0053484543468900435,-0.0004380707492316302,0.034409058103973926,0.9993934254589206
1635384963521056543,0,1635384963520585249,world,cf27,1.4616669416427612,-1.0946964025497437,0.00842337217181921,-0.02680523921347168,-0.012753446783979935,0.005158374631586472,0.9995460069036327
1635384963521105991,0,1635384963520590487,world,cf28,-3.0052785873413086,0.05928755924105644,0.014753966592252254,0.004892133723458429,-0.015271605246772594,0.0560028562335382,0.998301820690769
1635384963530851887,0,1635384963530511268,world,cf33,-2.0129151344299316,0.0062647126615047455,0.017566513270139694,-0.0034192397187671193,-0.018478914805023738,0.09591986088265418,0.9952116452270977
1635384963530878497,0,1635384963530527820,world,cf3,1.4926807880401611,-0.01993025280535221,0.012550128623843193,-0.0037813571274064616,-0.0002991974031180117,0.06202689996532006,0.998067270027367
1635384963530898123,0,1635384963530533687,world,cf41,-1.9693487882614136,-0.9988060593605042,0.017687488347291946,-0.010714333534704388,-0.023203611439447224,0.04446302739424787,0.9986840514737445
1635384963530915164,0,1635384963530538855,world,cf47,-3.013667583465576,-0.9342558979988098,0.009745231829583645,-0.0014385683822050331,-0.0204090350758625,0.04163353249317637,0.9989234459058519
1635384963530955603,0,1635384963530558411,world,cf17,0.49554988741874695,0.0038919872604310513,0.013562474399805069,-0.015368487391872434,0.010841705628920553,0.0902454835791128,0.9957419443349336
1635384963530970549,0,1635384963530566932,world,cf20,0.4984546899795532,-1.0874980688095093,0.009868022985756397,0.004575980420128465,0.0003353255203543809,0.034657743271786716,0.9993887075564227
1635384963531009800,0,1635384963530572659,world,cf27,1.4616763591766357,-1.0946435928344727,0.008341141045093536,-0.026843069501371667,-0.013372278961662048,0.004961809213689211,0.9995378993437132
1635384963531036200,0,1635384963530577617,world,cf28,-3.0052385330200195,0.059375546872615814,0.014760318212211132,0.005307741422840932,-0.0159049237800707,0.05532605904011406,0.9983275456840947
1635384963540686832,0,1635384963540383159,world,cf33,-2.012897491455078,0.006263119168579578,0.017549457028508186,-0.0039479648944707214,-0.017831064873738534,0.09593536765604178,0.9952200118221903
1635384963540701150,0,1635384963540398175,world,cf3,1.4927127361297607,-0.019918281584978104,0.012523593381047249,-0.0045354423055969035,0.00045349545835967107,0.06182243049086989,0.9980767561631537
1635384963540714908,0,1635384963540403902,world,cf41,-1.9692786931991577,-0.9986835718154907,0.01761815883219242,-0.01083105359137886,-0.02418600258771507,0.04348504260158644,0.9987025466207974
1635384963540735582,0,1635384963540409070,world,cf47,-3.01364803314209,-0.9342862963676453,0.009655564092099667,-0.002150819922248484,-0.019619942190667615,0.04173322496428907,0.998933816514476
1635384963540791036,0,1635384963540414169,world,cf17,0.4955804944038391,0.0038328059017658234,0.013466344214975834,-0.0162241480189579,0.012155126049008131,0.09015350192155784,0.995721535381791
1635384963540811640,0,1635384963540418918,world,cf20,0.49846068024635315,-1.0873557329177856,0.009846113622188568,0.005923767198785662,-0.00033739035066522176,0.03552207404888874,0.9993512782826623
1635384963540822954,0,1635384963540424086,world,cf27,1.4616860151290894,-1.0945888757705688,0.008333219215273857,-0.025837137518174586,-0.013739610668174043,0.004596395611183035,0.9995611730009022
1635384963540849354,0,1635384963540429394,world,cf28,-3.005340576171875,0.05920671299099922,0.01471938006579876,0.004115962439034651,-0.01688645041449331,0.05585028624909393,0.9982878603746985
1635384963550802402,0,1635384963550485669,world,cf33,-2.0128109455108643,0.00634531956166029,0.017495552077889442,-0.0033331286949316082,-0.01975461618223408,0.09563981566690921,0.995214384467887
1635384963550830688,0,1635384963550498310,world,cf3,1.4926502704620361,-0.019923890009522438,0.012532716616988182,-0.003520675114348198,0.0002718164263636257,0.062163682748568955,0.9980597214143575
1635384963550851222,0,1635384963550503688,world,cf41,-1.9692589044570923,-0.9985389113426208,0.017560504376888275,-0.010112473823454069,-0.023745689734308684,0.043685656396356035,0.9987118921477963
1635384963550862047,0,1635384963550508507,world,cf47,-3.0137383937835693,-0.9343172311782837,0.009605555795133114,-0.0026901718089058766,-0.019550738754454292,0.042287852395051895,0.9989105411044614
1635384963550891102,0,1635384963550513396,world,cf17,0.4955828785896301,0.0037383390590548515,0.013542937114834785,-0.016781493738129864,0.012132751550605258,0.08932224510328307,0.9957874845254069
1635384963550903743,0,1635384963550518005,world,cf20,0.4984472095966339,-1.0874384641647339,0.009838125668466091,0.0048422441286466765,-5.305919374394006e-05,0.03453712938941404,0.9993916832503958
1635384963550935870,0,1635384963550522824,world,cf27,1.461695671081543,-1.0947070121765137,0.008307654410600662,-0.02682147090388212,-0.01268999699134358,0.005087059183852448,0.9995467445316261
1635384963550985458,0,1635384963550528063,world,cf28,-3.005293846130371,0.05938447266817093,0.014675173908472061,0.00435425714327754,-0.015888696560848976,0.05616249897769754,0.9982857123463741
1635384963560818657,0,1635384963560493612,world,cf33,-2.0128014087677,0.006345746573060751,0.017431264743208885,-0.003352745099661771,-0.01995460579694276,0.09544548760075301,0.9952289845580462
1635384963560840867,0,1635384963560510933,world,cf3,1.4926865100860596,-0.020019350573420525,0.012595271691679955,-0.00230758146294796,0.0007525661430964599,0.06271432287129465,0.9980285679372044
1635384963560870550,0,1635384963560516520,world,cf41,-1.9691482782363892,-0.9986425638198853,0.01763819344341755,-0.01218605491696028,-0.02325701684039197,0.04146657458953603,0.998794841008431
1635384963560882772,0,1635384963560521409,world,cf47,-3.0137155055999756,-0.9343964457511902,0.009662081487476826,-0.001980077443194229,-0.01955098440825605,0.0429000363246434,0.9988860921973692
1635384963560893458,0,1635384963560526368,world,cf17,0.4955773949623108,0.0037349583581089973,0.013493750244379044,-0.01701508227930601,0.01271912326370666,0.09087673317070953,0.9956355408715836
1635384963560904632,0,1635384963560531257,world,cf20,0.4981344938278198,-1.0867069959640503,0.009138837456703186,-0.003014338196598818,0.006785994381710681,0.03906749180895937,0.9992089847120295
1635384963560973287,0,1635384963560536146,world,cf27,1.4616641998291016,-1.0947259664535522,0.00832733977586031,-0.02660716958131496,-0.012896707641575952,0.0054584691893795395,0.9995478670744025
1635384963560983903,0,1635384963560541105,world,cf28,-3.0052781105041504,0.059163518249988556,0.01485144067555666,0.004097902520507024,-0.01708141088359336,0.05266679988787806,0.9984576309422091
1635384963570888969,0,1635384963570559455,world,cf33,-2.012833595275879,0.0062435586005449295,0.01743171736598015,-0.004798858956576568,-0.019042583438018696,0.09469848253264906,0.9953122868601264
1635384963570925217,0,1635384963570575798,world,cf3,1.4927208423614502,-0.020005978643894196,0.01257387176156044,-0.0011784590614531071,-0.0005015961487646556,0.062020079877417304,0.9980740800800022
1635384963570941211,0,1635384963570581525,world,cf41,-1.9694346189498901,-0.9992561340332031,0.01770303212106228,-0.02005525119719537,-0.013842559420378923,0.047518465670731806,0.9985730648622614
1635384963570955040,0,1635384963570586414,world,cf47,-3.013772487640381,-0.9344000220298767,0.009631052613258362,-0.002601550178528407,-0.01910668227999235,0.043197601784960266,0.9988804402074094
1635384963570984583,0,1635384963570591093,world,cf17,0.4954489767551422,0.003738912520930171,0.013631246984004974,-0.01566840102063616,0.014122849834397154,0.09096446358161593,0.9956307110004795
1635384963571015663,0,1635384963570595773,world,cf20,0.49847376346588135,-1.087399959564209,0.009784732013940811,0.006213470622501154,-0.00029893084605719553,0.03519610199276834,0.9993610647947453
1635384963571049676,0,1635384963570600941,world,cf27,1.4616869688034058,-1.0947775840759277,0.008327912539243698,-0.02704929932593456,-0.012180798685426543,0.005491625516878956,0.9995447991953854
1635384963571067625,0,1635384963570613233,world,cf28,-3.005289077758789,0.05922352522611618,0.014765137806534767,0.005012693469300014,-0.016267173381743865,0.056111124756417836,0.9982794166228817
1635384963580752480,0,1635384963580456070,world,cf33,-2.012810707092285,0.006205507554113865,0.017508087679743767,-0.004779087442256178,-0.0199044610190331,0.09408864502333622,0.9953533541574237
1635384963580790194,0,1635384963580473251,world,cf3,1.4927080869674683,-0.020121324807405472,0.012582610361278057,-0.001971247984839121,-0.0006458658324208452,0.0625157105216724,0.9980418242622296
1635384963580806188,0,1635384963580478769,world,cf41,-1.9691871404647827,-0.9986175894737244,0.017629606649279594,-0.014708701710452896,-0.01900304692107759,0.04200520047960143,0.9988283643521427
1635384963580829655,0,1635384963580483518,world,cf47,-3.013715982437134,-0.9343198537826538,0.0097477613016963,-0.0007327240913994935,-0.01991606509770157,0.042744442950290826,0.9988872439186013
1635384963580855287,0,1635384963580488477,world,cf17,0.4955962300300598,0.0036859281826764345,0.013375809416174889,-0.019041109519998354,0.012786272704953984,0.08959285768968545,0.9957143502177508
1635384963580867579,0,1635384963580493156,world,cf20,0.49820536375045776,-1.0869003534317017,0.009197146631777287,-0.0034552703897617874,0.006073808020377583,0.03739697688055292,0.9992760559939684
1635384963580887554,0,1635384963580498045,world,cf27,1.4616953134536743,-1.0947014093399048,0.008278838358819485,-0.02632920551566517,-0.013165426047022179,0.004900559517508488,0.9995546153214089
1635384963580918983,0,1635384963580502794,world,cf28,-3.0053253173828125,0.05920365825295448,0.014763262122869492,0.004457788077539103,-0.015881469477829143,0.05455693231608461,0.9983744028113595
1635384963590721940,0,1635384963590409956,world,cf33,-2.0128095149993896,0.0063041322864592075,0.01746058091521263,-0.0032877332159602034,-0.019166470948689146,0.09586321318484747,0.9952045425738119
1635384963590734791,0,1635384963590425042,world,cf3,1.4927221536636353,-0.01995977759361267,0.01252715103328228,-0.004207447428257251,-0.0002319733462920766,0.06158107895367686,0.9980931891809532
1635384963590744988,0,1635384963590430629,world,cf41,-1.9693456888198853,-0.9992311596870422,0.0177773367613554,-0.018745373331580502,-0.014674175990013917,0.04600276277517389,0.9986576116741537
1635384963590760353,0,1635384963590436217,world,cf47,-3.0137100219726562,-0.9343385100364685,0.009727951139211655,-0.0011235589435881507,-0.020296010774524916,0.04247046934774477,0.9988909193677371
1635384963590792551,0,1635384963590441245,world,cf17,0.49558115005493164,0.003990744240581989,0.013550358824431896,-0.014906608805031234,0.011530082909092168,0.08941256438122708,0.995816370388043
1635384963590815040,0,1635384963590445994,world,cf20,0.49843037128448486,-1.087414264678955,0.009759735316038132,0.004941437901566665,-0.00010473435485430888,0.03502485931226027,0.9993742194255044
1635384963590841440,0,1635384963590451302,world,cf27,1.461710810661316,-1.0947189331054688,0.008252875879406929,-0.027050189508805295,-0.012288508861762406,0.00487773722785936,0.9995466409713096
1635384963590886698,0,1635384963590456401,world,cf28,-3.005312442779541,0.059022918343544006,0.01480588037520647,0.003799705884066027,-0.017298351450179748,0.05369404541003751,0.9984003599557671
1635384963601193565,0,1635384963600866146,world,cf33,-2.012830972671509,0.00630614347755909,0.017519697546958923,-0.003234281658160184,-0.01900859169976475,0.09601245784477822,0.9951933584999209
1635384963601231839,0,1635384963600890451,world,cf3,1.492667317390442,-0.019943730905652046,0.01253383606672287,-0.00265520356383204,-0.0013793118356578169,0.061635919780803676,0.9980942143834263
1635384963601266550,0,1635384963600899321,world,cf41,-1.9693567752838135,-0.9989296793937683,0.01771143637597561,-0.012715477640842836,-0.02133795084458876,0.04531835443602514,0.9986637348143418
1635384963601279052,0,1635384963600906724,world,cf47,-3.0137550830841064,-0.9343579411506653,0.00967440940439701,-0.0023470272336091973,-0.019973090336907414,0.04222993641151626,0.9989055008339065
1635384963601316697,0,1635384963600914057,world,cf17,0.4955996870994568,0.003852896159514785,0.013526069931685925,-0.016274725677704854,0.010794726905807484,0.08895308338205202,0.995844343324784
1635384963601331503,0,1635384963600920972,world,cf20,0.49846500158309937,-1.087438702583313,0.00983468722552061,0.004121583272852105,0.00011354654590746337,0.03468493247711341,0.9993897913815034
1635384963601348405,0,1635384963600928375,world,cf27,1.4616806507110596,-1.0946894884109497,0.008322867564857006,-0.026867130470658383,-0.013398541918980083,0.004981925189630821,0.9995368011214609
1635384963601402253,0,1635384963600935499,world,cf28,-3.0053319931030273,0.05909349024295807,0.014837448485195637,0.003388678616529551,-0.017668129675528294,0.05361182554252525,0.9983997827588909
1635384963611237128,0,1635384963610901048,world,cf33,-2.0128211975097656,0.0063074990175664425,0.017526743933558464,-0.0029735703186115747,-0.019225700234719468,0.09651603754362786,0.9951412888765705
1635384963611260805,0,1635384963610922839,world,cf3,1.4926981925964355,-0.019897811114788055,0.01251936610788107,-0.003964895486576356,-0.0005835771597404821,0.06186909390929597,0.9980762266782642
1635384963611305643,0,1635384963610931639,world,cf41,-1.9692678451538086,-0.9986931085586548,0.017605144530534744,-0.01205857148019325,-0.023252853290375953,0.04361457593895331,0.9987049936960256
1635384963611327085,0,1635384963610939601,world,cf47,-3.013672113418579,-0.9342913031578064,0.00968917552381754,-0.0012994576175871465,-0.019552413269348593,0.04211296863625361,0.9989206737363516
1635384963611359282,0,1635384963610947354,world,cf17,0.4955868422985077,0.0038471482694149017,0.013495059683918953,-0.01590399403822314,0.011188262790192246,0.09018805394630225,0.9957349048189225
1635384963611387847,0,1635384963611006999,world,cf20,0.49843713641166687,-1.0873876810073853,0.009870643727481365,0.004588443672384655,-8.610376213050491e-06,0.034797734651337266,0.9993838420615284
1635384963611450984,0,1635384963611014821,world,cf27,1.4616789817810059,-1.094723105430603,0.008363652043044567,-0.027006550676631297,-0.013015334004506765,0.005374884415168857,0.9995360713445139
1635384963611462299,0,1635384963611022085,world,cf28,-3.0054080486297607,0.059067655354738235,0.014772843569517136,0.003881488912867245,-0.0164494122723262,0.055042501342709466,0.9983409607572216
1635384963621382241,0,1635384963621085553,world,cf33,-2.012847900390625,0.006332133896648884,0.01748618856072426,-0.003200818533835553,-0.01953874144971417,0.09563893026366763,0.9952191654913485
1635384963621410248,0,1635384963621114188,world,cf3,1.4926691055297852,-0.019939713180065155,0.012531023472547531,-0.0027396909685131077,-0.0008185689298291604,0.06220812036617634,0.9980591033595212
1635384963621423448,0,1635384963621122708,world,cf41,-1.969328761100769,-0.9987516403198242,0.01763766072690487,-0.010735657914656981,-0.023288704275341913,0.04484972695699635,0.9986645502340603
1635384963621441048,0,1635384963621130251,world,cf47,-3.0136828422546387,-0.9343279600143433,0.009617635048925877,-0.003096407780075884,-0.019340003128175614,0.04196675169278437,0.9989270084897184
1635384963621464446,0,1635384963621137794,world,cf17,0.49558526277542114,0.003749862080439925,0.013576913625001907,-0.01603254838200876,0.011191246864061654,0.0888558538407255,0.9958525747439938
1635384963621496852,0,1635384963621145407,world,cf20,0.49844568967819214,-1.0873819589614868,0.009827331639826298,0.004919452455147355,-0.00015443434972540516,0.03449761771043116,0.9993926603241982
1635384963621513335,0,1635384963621152671,world,cf27,1.461675763130188,-1.094618320465088,0.008283277042210102,-0.026278577526333998,-0.013935692492417337,0.0047144894095930015,0.9995464003374511
1635384963621534218,0,1635384963621159585,world,cf28,-3.00527286529541,0.05922827497124672,0.014771446585655212,0.00482239616589487,-0.017171906158830335,0.053332820073463114,0.9984174880465101
1635384963631316851,0,1635384963630984822,world,cf33,-2.012807846069336,0.006408144254237413,0.01739608123898506,-0.0037337510783954377,-0.019343880662820463,0.09546625479097778,0.9952376940108183
1635384963631343670,0,1635384963631006333,world,cf3,1.4927113056182861,-0.019986862316727638,0.012601609341800213,-0.0022061149960710706,0.000162144711313778,0.06245452006975937,0.9980453595346119
1635384963631399265,0,1635384963631014435,world,cf41,-1.9691314697265625,-0.9985302090644836,0.01756499707698822,-0.011798388331546004,-0.02267878317663004,0.04251843320818239,0.998768568620342
1635384963631421055,0,1635384963631021559,world,cf47,-3.013716697692871,-0.9343529939651489,0.00956713780760765,-0.002902724351721297,-0.01901553036826495,0.04217231327755764,0.9989251622563979
1635384963631448713,0,1635384963631028473,world,cf17,0.4954960346221924,0.0038715091068297625,0.013635115697979927,-0.015078629687937264,0.012802714754400504,0.09015274239702883,0.9957314941589156
1635384963631475113,0,1635384963631034899,world,cf20,0.4984371066093445,-1.0873675346374512,0.009812276810407639,0.005690905586351081,0.00014489111703910128,0.0353997266224863,0.9993570192654999
1635384963631496415,0,1635384963631041534,world,cf27,1.4616734981536865,-1.0947506427764893,0.008388412185013294,-0.026465232097517194,-0.01329402187265736,0.005469501131115984,0.9995463696246666
1635384963631511710,0,1635384963631047959,world,cf28,-3.005373477935791,0.059167392551898956,0.014703916385769844,0.0034027209190342486,-0.016671270205832527,0.053903572499848174,0.9984011694263107
1635384963641298464,0,1635384963640966714,world,cf33,-2.012819766998291,0.006397867109626532,0.017445947974920273,-0.0039761270884025555,-0.019352977879446336,0.09520318997954429,0.9952617772617882
1635384963641318509,0,1635384963640988645,world,cf3,1.4926702976226807,-0.020004095509648323,0.012592805549502373,-0.0004912123466405307,-0.0007232053781185611,0.061986568263717824,0.9980766007873839
1635384963641346795,0,1635384963640996467,world,cf41,-1.9690136909484863,-0.9984145164489746,0.017507880926132202,-0.013157883479798762,-0.021068073522206077,0.04284077824418876,0.9987730843889553
1635384963641392052,0,1635384963641003242,world,cf47,-3.01369571685791,-0.93434077501297,0.009705856442451477,-0.0015835177836811631,-0.019672597097731743,0.043150924739685154,0.9988736051618188
1635384963641406929,0,1635384963641010366,world,cf17,0.49564769864082336,0.0036961303558200598,0.013411493971943855,-0.018879345935509273,0.012451327000922894,0.0886218295481679,0.9958085689933075
1635384963641427183,0,1635384963641016721,world,cf20,0.4984525144100189,-1.0874124765396118,0.00972677394747734,0.0050734304633640636,-0.0006285251560447431,0.03409389393718781,0.9994055591478673
1635384963641456307,0,1635384963641023356,world,cf27,1.461694359779358,-1.0947299003601074,0.008316758088767529,-0.026127898559260662,-0.01282737565513383,0.005424224666438925,0.9995615884663871
1635384963641463990,0,1635384963641030061,world,cf28,-3.0052664279937744,0.05923832952976227,0.014807687141001225,0.004245275142512537,-0.017350146451435424,0.05276204244055546,0.9984473531111088
1635384963651403907,0,1635384963651055046,world,cf33,-2.012845277786255,0.006262071430683136,0.01747273840010166,-0.004760542452001397,-0.01973376436880185,0.09425409203922856,0.9953411886952434
1635384963651429679,0,1635384963651076907,world,cf3,1.492704153060913,-0.02005181461572647,0.012630139477550983,-0.0019480045857942505,-0.00045860477194179124,0.062148071739667625,0.9980649338288757
1635384963651444415,0,1635384963651085078,world,cf41,-1.9692155122756958,-0.9989571571350098,0.017680814489722252,-0.020590925687548767,-0.014232849770216974,0.04393747469906311,0.9987206506745605
1635384963651470955,0,1635384963651091993,world,cf47,-3.0137441158294678,-0.9343621134757996,0.00965405348688364,-0.0014868298025899008,-0.020186537487407466,0.04235858015979669,0.998897414016201
1635384963651495680,0,1635384963651099047,world,cf17,0.49561581015586853,0.0036366607528179884,0.013446779921650887,-0.01894696957150039,0.011733202071645627,0.08880413923330488,0.9957997635911722
1635384963651515375,0,1635384963651105542,world,cf20,0.498453289270401,-1.0874308347702026,0.009807096794247627,0.005714737876115329,-0.0003431237167677686,0.034833662613709425,0.9993767257576277
1635384963651560772,0,1635384963651112386,world,cf27,1.4616994857788086,-1.0946515798568726,0.008350919932126999,-0.026549506442279425,-0.012861519814477435,0.004594503817064643,0.9995541984056734
1635384963651578792,0,1635384963651118952,world,cf28,-3.0053646564483643,0.05929570645093918,0.014757666736841202,0.004862127856863283,-0.01597071821820079,0.05671978778334069,0.998250550486255
1635384963661280338,0,1635384963661003903,world,cf33,-2.012847900390625,0.006181207951158285,0.017527105286717415,-0.004867229169183766,-0.019090026711823235,0.09516923176805642,0.9952661444483252
1635384963661295075,0,1635384963661025834,world,cf3,1.4927221536636353,-0.01999804377555847,0.01255869586020708,-0.0032057528327169797,-0.000774366988109932,0.061667139425888425,0.9980913221842835
1635384963661330624,0,1635384963661033447,world,cf41,-1.9694405794143677,-0.99917072057724,0.017683571204543114,-0.017292069047019087,-0.015157497291448718,0.04822071579166509,0.9985719789742111
1635384963661353672,0,1635384963661040151,world,cf47,-3.013730049133301,-0.9343284964561462,0.009753182530403137,-0.0005898613449232228,-0.02026180685230837,0.042521565072005774,0.9988898977117051
1635384963661389222,0,1635384963661046856,world,cf17,0.49562591314315796,0.0037579901982098818,0.013559014536440372,-0.016366336821652505,0.011329925845416134,0.08908935814265563,0.995824714528168
1635384963661401235,0,1635384963661053142,world,cf20,0.4984194040298462,-1.0872812271118164,0.009777571074664593,0.0062985084656062736,0.0005070273740695272,0.03533660603908338,0.9993554902976164
1635384963661420790,0,1635384963661059917,world,cf27,1.4617012739181519,-1.0946756601333618,0.008363643661141396,-0.026233702610264524,-0.013109897119050128,0.004827703173451812,0.9995582107746167
1635384963661475197,0,1635384963661066412,world,cf28,-3.0053870677948,0.05918406695127487,0.014846723526716232,0.006517434030278476,-0.014468299232148698,0.05770269784213022,0.998207688826694
1635384963671325438,0,1635384963670993199,world,cf33,-2.0128378868103027,0.006240926682949066,0.017511000856757164,-0.002948882851462074,-0.019316292056921567,0.0958491371062812,0.9952040634297478
1635384963671352327,0,1635384963671017923,world,cf3,1.4927127361297607,-0.019923431798815727,0.012498441152274609,-0.0042017078117970105,-0.0003662990274675908,0.061852990343697116,0.9980763593343093
1635384963671362035,0,1635384963671025885,world,cf41,-1.969528079032898,-0.9993473291397095,0.017764359712600708,-0.018467606667627753,-0.017351219140244716,0.045982579862589454,0.9986207914155891
1635384963671368810,0,1635384963671032800,world,cf47,-3.013740301132202,-0.9343703985214233,0.00972224771976471,-0.0006428857328941177,-0.019821283964435044,0.042908537322422564,0.9988821556243689
1635384963671395419,0,1635384963671040203,world,cf17,0.4956009089946747,0.00383042823523283,0.013508721254765987,-0.01610360159403252,0.011278492756360644,0.08967337296772107,0.995777161717137
1635384963671421610,0,1635384963671046768,world,cf20,0.49844375252723694,-1.0874625444412231,0.009808485396206379,0.005045555995266245,-0.000780506641236822,0.034216877056952436,0.9994013900823587
1635384963671443680,0,1635384963671053473,world,cf27,1.4616930484771729,-1.094622254371643,0.008205975405871868,-0.027432608340896086,-0.012600044180826074,0.004721887091030996,0.9995330883310245
1635384963671459604,0,1635384963671060178,world,cf28,-3.00534725189209,0.059028323739767075,0.014816069044172764,0.003735204455976155,-0.016695000212836892,0.05405956128232617,0.9983911503261274
1635384963681187691,0,1635384963680844347,world,cf33,-2.012899875640869,0.006292490288615227,0.017526721581816673,-0.003941957407605839,-0.01823239416909221,0.09655990535921354,0.9951523629332742
1635384963681231133,0,1635384963680865789,world,cf3,1.4926588535308838,-0.019979316741228104,0.012498531490564346,-0.00366542057124785,-0.0006502787198602485,0.061688484640679164,0.9980885094481146
1635384963681245869,0,1635384963680873611,world,cf41,-1.9693732261657715,-0.9989145398139954,0.017708050087094307,-0.012521238914978972,-0.021388629310298356,0.045574139503006185,0.9986534648819986
1635384963681266403,0,1635384963680880456,world,cf47,-3.0137360095977783,-0.9343731999397278,0.00966100674122572,-0.0027296747652974687,-0.02013056139970531,0.0417709531351797,0.9989206659427899
1635384963681284422,0,1635384963680888138,world,cf17,0.49557948112487793,0.003999213222414255,0.013575589284300804,-0.014614651822678895,0.011333291350390145,0.08803768402801855,0.9959454476276559
1635384963681316549,0,1635384963680894494,world,cf20,0.49843916296958923,-1.0873647928237915,0.009777452796697617,0.0049112600579194424,5.997736835363097e-05,0.03518475853060573,0.9993687551121967
1635384963681336245,0,1635384963680901269,world,cf27,1.461692452430725,-1.0946788787841797,0.00829717330634594,-0.027001556412299645,-0.013270414632555823,0.00480497915022997,0.9995357543490674
1635384963681357826,0,1635384963680907904,world,cf28,-3.0053293704986572,0.05911218747496605,0.014808992855250835,0.004034964221473388,-0.016230303205771086,0.054149282995841125,0.998392784164938
1635384963691070547,0,1635384963690762544,world,cf33,-2.0128772258758545,0.00622527115046978,0.01752632111310959,-0.003492886431436359,-0.01807958817967166,0.0960437803926671,0.9952067727279169
1635384963691105818,0,1635384963690785103,world,cf3,1.4926536083221436,-0.019937481731176376,0.012531539425253868,-0.003554220416002001,-0.0003427672009798574,0.062176765842253345,0.9980587657133612
1635384963691126980,0,1635384963690793205,world,cf41,-1.9692760705947876,-0.998949408531189,0.01767803356051445,-0.012402949398924286,-0.021753569265460595,0.044555766733207935,0.9986930122521317
1635384963691157570,0,1635384963690800119,world,cf47,-3.01369571685791,-0.9344218969345093,0.009671478532254696,-0.002179833342376509,-0.01929604989907886,0.04279174244862042,0.9988952785768399
1635384963691189418,0,1635384963690807243,world,cf17,0.4955049455165863,0.0037517838645726442,0.013571877032518387,-0.015650460020217357,0.011318539856107186,0.0906585129325322,0.9956947262035404
1635384963691206600,0,1635384963690813668,world,cf20,0.4984258711338043,-1.0873733758926392,0.009810266084969044,0.005358641294756556,-0.00024355611543647459,0.0342820228808282,0.999397802954905
1635384963691271483,0,1635384963690820513,world,cf27,1.4616804122924805,-1.0946940183639526,0.00836144108325243,-0.02684780256083792,-0.012817266615959446,0.0052170866128231,0.9995437435057177
1635384963691306264,0,1635384963690826938,world,cf28,-3.0052683353424072,0.059203386306762695,0.014715446159243584,0.0046394175224278396,-0.015770458105502105,0.0561259180371815,0.9982883600346539
1635384963701184790,0,1635384963700844660,world,cf33,-2.0128390789031982,0.006371345371007919,0.017483407631516457,-0.0024841262810727334,-0.019005682562274993,0.09627024207352679,0.9951706655835804
1635384963701205673,0,1635384963700866800,world,cf3,1.492677927017212,-0.019878460094332695,0.0124912578612566,-0.003825415807819878,9.51608368733365e-05,0.062251157256115894,0.9980531802256766
1635384963701216080,0,1635384963700874622,world,cf41,-1.9691407680511475,-0.9983291625976562,0.01750822924077511,-0.009721623063875261,-0.02598066325350649,0.04001921522999794,0.998813775232544
1635384963701238708,0,1635384963700881397,world,cf47,-3.013714551925659,-0.9343946576118469,0.009689456783235073,-0.0023984999427040135,-0.0199603695531549,0.04236769599452382,0.9988997993700078
1635384963701252607,0,1635384963700888032,world,cf17,0.4954608976840973,0.003949695732444525,0.013590111397206783,-0.015140198221504095,0.013182795650407397,0.08949623286693555,0.9957848224387036
1635384963701278309,0,1635384963700894387,world,cf20,0.49842751026153564,-1.0873713493347168,0.009754689410328865,0.005016831671342498,0.0006527841893324863,0.03549348183500647,0.9993571023513125
1635384963701306385,0,1635384963700901302,world,cf27,1.4616771936416626,-1.0947202444076538,0.008343737572431564,-0.02667031869470848,-0.012689249874476945,0.005374917415312312,0.9995492920817484
1635384963701328805,0,1635384963700907727,world,cf28,-3.005275011062622,0.05925727263092995,0.014820405282080173,0.00553733056392816,-0.0162292642192473,0.05539227202325782,0.9983174070170414
1635384963711138886,0,1635384963710827181,world,cf33,-2.012777090072632,0.006388284265995026,0.017431586980819702,-0.003200994209984669,-0.020138817562153317,0.09478139440131304,0.9952892388339224
1635384963711169616,0,1635384963710848762,world,cf3,1.4926522970199585,-0.02008366398513317,0.012651379220187664,-0.0010760958419813338,-0.0008148997349502005,0.0628188096460914,0.9980240353372303
1635384963711190290,0,1635384963710856584,world,cf41,-1.9692530632019043,-0.9986727833747864,0.017540812492370605,-0.012459284212877378,-0.022547983748212225,0.043746220360234706,0.9987104800040836
1635384963711224442,0,1635384963710863429,world,cf47,-3.013709783554077,-0.934298574924469,0.009676030836999416,-0.0010254381898548528,-0.018493441820741724,0.04398917768835125,0.9988602972049917
1635384963711233103,0,1635384963710870692,world,cf17,0.49551084637641907,0.003590934444218874,0.013545690104365349,-0.017596009860909766,0.013497478130882933,0.09083194897604122,0.9956192824399771
1635384963711279827,0,1635384963710877816,world,cf20,0.4984331429004669,-1.0873631238937378,0.009753902442753315,0.0056930713613236525,-0.0003246183532045695,0.03503970330519843,0.9993696527079874
1635384963711293865,0,1635384963710884731,world,cf27,1.4616832733154297,-1.094698429107666,0.00832559447735548,-0.025915861178321793,-0.013433750744004132,0.0050677848143468145,0.9995610136642032
1635384963711313631,0,1635384963710891226,world,cf28,-3.0052502155303955,0.059342071413993835,0.014737769961357117,0.005229254463795712,-0.015373185896078057,0.05557598397428116,0.9983224078715492
1635384963721139356,0,1635384963720789308,world,cf33,-2.0128331184387207,0.006290617864578962,0.017415303736925125,-0.005004566233234296,-0.01988670816684127,0.09458567335164601,0.9953054925758823
1635384963721174068,0,1635384963720811099,world,cf3,1.4927117824554443,-0.020050082355737686,0.01258129719644785,-0.0020234834033904746,-0.00020883725764913574,0.06256761431812607,0.998038654331812
1635384963721198652,0,1635384963720818851,world,cf41,-1.9690372943878174,-0.9984034299850464,0.017507728189229965,-0.012325510216978385,-0.022592061826898203,0.041694737410387324,0.9987988933777308
1635384963721215903,0,1635384963720825905,world,cf47,-3.013723373413086,-0.9343481659889221,0.009653800167143345,-0.0014691223282729423,-0.020438996601242657,0.04250083020172054,0.9988862640609708
1635384963721240627,0,1635384963720833518,world,cf17,0.49562016129493713,0.00366315059363842,0.013401692733168602,-0.01925272835168058,0.01195188591933042,0.08846460881211743,0.9958215190794517
1635384963721263047,0,1635384963720839874,world,cf20,0.49841588735580444,-1.0873979330062866,0.009798984974622726,0.005942301720158416,-0.0002832150153355744,0.03495237169770175,0.9993712726270589
1635384963721283929,0,1635384963720846998,world,cf27,1.461685299873352,-1.094638705253601,0.0083257295191288,-0.025862856742148475,-0.013592754035202164,0.005025435415005602,0.9995604507371043
1635384963721302368,0,1635384963720853772,world,cf28,-3.0052998065948486,0.0592365562915802,0.014712044969201088,0.004554340595207062,-0.016698442323746596,0.0538953353999786,0.9983965709215087
1635384963731314432,0,1635384963730986803,world,cf33,-2.01289439201355,0.006340320222079754,0.017409633845090866,-0.004480237761001013,-0.018777734314504826,0.09492623387420102,0.9952971085490399
1635384963731368071,0,1635384963731009502,world,cf3,1.4927688837051392,-0.020086554810404778,0.012622453272342682,-0.0020357721411858503,-0.0003493955208147662,0.062131053054410794,0.9980658624564359
1635384963731379874,0,1635384963731017533,world,cf41,-1.9692400693893433,-0.998568058013916,0.017535464838147163,-0.012236136926487347,-0.02089959938966609,0.04518575587693719,0.9986850009709255
1635384963731394471,0,1635384963731024587,world,cf47,-3.013742446899414,-0.9342784285545349,0.00964109692722559,-0.0007869612547148799,-0.019759156808607042,0.04278950951172052,0.9988883893058037
1635384963731428554,0,1635384963731031921,world,cf17,0.49565747380256653,0.003615456633269787,0.013469417579472065,-0.018654381745489636,0.01159108236995961,0.08772439457509862,0.9959026515918203
1635384963731452719,0,1635384963731038416,world,cf20,0.4984287619590759,-1.0873327255249023,0.009753004647791386,0.005894325913072516,1.3698173845194576e-05,0.03513219445249873,0.9993652913961653
1635384963731490573,0,1635384963731045261,world,cf27,1.4617189168930054,-1.094627857208252,0.008324812166392803,-0.026592891880222347,-0.01246747198439397,0.00435438522895462,0.9995591125956699
